번호,주차장 이름,차량 수용대수(전체 중 장애인 차량 수용대수),주차 요금(1시간 기준),경도,위도
1,코스트코세종점,387,0,127.2691617,36.4675447
2,서문메디컬센터(SM메디컬센터) 건물 주차장,127,0,127.2759117,36.47127397
3,해피라움블루 건물 주차장,270,0,127.2749337,36.47368738
4,대평전통시장 주차장,41,800,127.2816161,36.46543319
5,보람동1 주차장,60,0,127.2880534,36.47741848
6,보람동2 주차장,70,0,127.2886478,36.47771821
7,보람동3 주차장,70,0,127.2896079,36.47766063
9,금강수변공원주차장,60,0,127.2913051,36.48216692
10,세종시청주차장(민원인),576,0,127.2870131,36.47924407
11,아아콤스타시티 (현대자동차),500,0,127.3014453,36.48573042
12,소담복합커뮤니티센터,500,0,127.3003683,36.48407359
13,세종국책연구단지,846,0,127.30309,36.49449141
14,이름없음,100,0,127.3020849,36.49104093
15,세종비즈니스센터,547,0,127.2649075,36.4956272
16,에비뉴힐 (영풍문고),273,0,127.2622955,36.49534749
17,세종중앙타운주차장,301,1600,127.262445,36.50830733
18,어진프라자 주차장(민영),274,1600,127.2628709,36.50749193
19,홈플러스세종점,250,0,127.2588009,36.50738909
20,세종호수공원 제1주차장,500,0,127.2680723,36.49166813
21,정부세종청사제8주차장,500,0,127.2628222,36.50236446
22,정부세종청사 제9주차장,500,0,127.2632397,36.50100843
24,싱싱장터 도담점 주차장,200,1600,127.2599239,36.51555961
25,세종한신휴시티지하주차장,515,1600,127.2586021,36.51430546
26,세종라온프라이빗시티1차,207,1600,127.2587789,36.51342666
27,도담프라자,127,1600,127.2583176,36.51282082
28,도담동먹자골목 노상 공영 주차장,13,1400,127.2584634,36.51335555
29,원프라자,107,1600,127.2578432,36.5155759
30,종촌동공영주차장,160,1400,127.2497075,36.50374843
31,메가시티,200,0,127.2481238,36.50281603
32,몰리브상가,200,0,127.2476298,36.50268132
33,아름동공영주차장,236,1400,127.2478657,36.51139728
34,아름주차장,54,0,127.2484291,36.51232252
35,아름행복타워 (GS타임즈 아름행복타워 민영 주차장),49,2000,127.2430111,36.51225636
36,동행주차타워,108,1400,127.2431164,36.512555
37,하모니타워2,38,1400,127.2355037,36.51926726
38,하모니타워1,43,1400,127.2343477,36.50562956
39,고운동복합커뮤니케이션센터 (남측),50,0,127.2353642,36.50497409
40,페스티발1,45,0,127.2485426,36.49529674
41,페스티발2,90,0,127.2492573,36.49518147
42,?무지개타워 (P214) (3-6F 주차장),300,1400,127.2512329,36.4845333
43,온누리타워 (주차타워),50,1400,127.2502526,36.48653499
44,한솔동행정복지센터,26,0,127.2546671,36.479174
45,"세종센터빌딩 (A(26), B(27)동)",53,0,127.2534132,36.47993226
46,골든타워 (2-3층 주차빌딩),50,1400,127.2538478,36.47983233
47,이마트세종점,615,0,127.2510637,36.47114446
48,세종2청사 임시 공영 주차장,70,0,127.2614448,36.48487742
49,2생활권환승주차장A (첫마을 BRT 환승센터A) (225) (전기차충전),271,0,127.2612227,36.48104191
50,세종행복타워 민영 주차장,127,2000,127.2618137,36.48023627
51,나리2로 노상 공영 주차장 (무인),44,1400,127.2606333,36.48135086
52,2생활권환승주차장B (226) (전기차충전),271,0,127.2621216,36.48146258
53,나성동 임시 공영 주차장1,100,0,127.2583251,36.48892553
54,나성동 임시 공영 주차장2,70,0,127.2588161,36.4905915
55,상리1 공영 주차장(세종고용복지+센터 부설주차장),90,600,127.3020376,36.60149465
56,조치원 주차타워 (원리 2 주차장),200,800,127.2978272,36.60059991
57,조치원역 서부 주차장 (조치원역 공영 주차장),165,1900,127.2953981,36.60058154
58,조치원역 동부주차장,65,1900,127.2963515,36.60051896
59,조치원 전통시장 주차장 (정리 1공영 주차장),26,800,127.2999808,36.59971935
60,죽림1 노상 공영 주차장,42,0,127.2972027,36.59150556
61,침산리 3공영 주차장,100,0,127.2923511,36.60436348
62,조치원 전통시장 주차장 재건축 후보지 (국비 36억원 투자 예정지),120,800,127.2995816,36.59976215
63,주차장 시뮬레이션 후보지,30,0,127.2967112,36.60291159
64,주차장 시뮬레이션 후보지,50,0,127.2755077,36.47407446
65,주차장 시뮬레이션 후보지 (임시주차장 (공터)),50,0,127.2561693,36.4867557
66,주차장 시뮬레이션 후보지 (소담동 공터),300,0,127.297135,36.48616051
67,"주차장 시뮬레이션 후보지 (보람동 공터, 세종세무서 예정지)",300,0,127.2859838,36.47885206
68,세종포스트빌딩,50,0,127.2611208,36.50807111
69,연서면사무소 봉암출장소,50,0,127.2780362,36.55914066
70,장군면사무소,50,0,127.205414,36.49670993
71,세종시청,50,0,127.2890394,36.48005795
72,청사경비대,50,0,127.267516,36.50333374
73,교육부,50,0,127.2655386,36.49911694
74,"농림축산식품부, 해양수산부",50,0,127.2650217,36.50461419
75,고운뜰공원 관리사무소,50,0,127.239115,36.51250438
76,지하차도 관리사무소,50,0,127.2451858,36.48467054
77,금천1리마을회관,50,0,127.3151222,36.442198
78,"국토교통부, 환경부, 행복도시건설청",50,0,127.2624411,36.50491249
79,세종특별자치시교육청,50,0,127.2863692,36.47808901
80,세종시 교육연구원,50,0,127.2877114,36.60044935
81,세종선거관리위원회,50,0,127.2924044,36.4784138
82,한솔동 복합커뮤니티센터 정음관,50,0,127.255841,36.4775094
83,소정우체국,50,0,127.1550567,36.71399173
84,소정치안센터,50,0,127.1568508,36.71819386
85,"산업통상자원부, 중앙토지수용위원회",50,0,127.2605312,36.50041354
86,고용노동부,50,0,127.2616523,36.50140036
87,3생활권 광역복지지원센터,50,0,127.2922631,36.47929679
88,세종특별자치시의회,50,0,127.2904509,36.48002104
89,한국조세재정연구원,50,0,127.3011376,36.49257078
90,세종우체국,50,0,127.2918559,36.48054879
91,황용보건진료소,50,0,127.3295508,36.48027699
92,이동식 화장실,50,0,127.2453629,36.52132698
93,종촌동주민센터,50,0,127.2468694,36.50463453
94,연동면119지역대,50,0,127.3266964,36.55875724
95,세종창업키움센터,50,0,127.2919684,36.59196285
96,조치원소방서,50,0,127.2889142,36.60479987
97,전동면사무소,50,0,127.2641798,36.6561038
98,전의면문화센터,50,0,127.2062795,36.67919062
99,세종전의우체국,50,0,127.2028294,36.67997719
100,전의면사무소,50,0,127.1960032,36.68140628
101,소담동주민센터,50,0,127.3003683,36.48407359
102,정부세종2청사,50,0,127.2609728,36.4839148
103,부강파출소,50,0,127.36448,36.53089983
104,연서119안전센터,50,0,127.202303,36.58956354
105,쌍류보건진료소,50,0,127.2137517,36.59495023
106,전동우체국,50,0,127.2668204,36.65395109
107,봉암119지역대,50,0,127.2858071,36.56075647
108,장군면119지역대,50,0,127.2042942,36.49661108
109,장군치안센터,50,0,127.2043314,36.49676181
110,장군면사무소,50,0,127.2056188,36.49667356
111,장군우체국,50,0,127.2060576,36.49696891
112,옥외체육시설,50,0,127.2582046,36.50583527
113,양곡보건진료소,50,0,127.177981,36.64026651
114,"세종시 조치원청사, 농정원",50,0,127.2922533,36.59331659
115,송곡보건진료소,50,0,127.2692956,36.63089799
116,연기면119지역대,50,0,127.2758877,36.54412367
117,티브로드 세종국사,50,0,127.2785726,36.5467491
118,세종연서우체국,50,0,127.2824404,36.56203245
119,세종창조경제혁신센터,50,0,127.292695,36.5958965
120,세종경찰서 조치원지구대,50,0,127.2980529,36.60436883
121,응암보건진료소,50,0,127.3413241,36.55732784
122,금남우체국,50,0,127.280963,36.46363249
123,금남면사무소,50,0,127.280366,36.46385504
124,금남면119지역대,50,0,127.2805347,36.46411379
125,금남파출소,50,0,127.2810529,36.46413933
126,연동면 복합커뮤니티센터,50,0,127.3273282,36.55534231
127,죽림파출소,50,0,127.2957693,36.59595559
128,소방서,50,0,127.2969394,36.58598892
129,첫마을안전센터,50,0,127.2592051,36.48050411
130,한솔파출소,50,0,127.2591221,36.48034058
131,한솔동주민센터,50,0,127.2546671,36.479174
132,세종한솔동우체국,50,0,127.2543426,36.47964468
133,와촌보건진료소,50,0,127.2464642,36.55684336
134,부강면119지역대,50,0,127.3729278,36.52797706
135,부강119안전센터,50,0,127.3721192,36.5283453
136,세종연동우체국,50,0,127.3252581,36.5580113
137,연동파출소,50,0,127.3247275,36.55859152
138,문화체육관광부,50,0,127.2654334,36.49787691
139,교육부,50,0,127.2639834,36.49945578
140,기획재정부,50,0,127.2664963,36.50600844
141,세종소방서,50,0,127.2739354,36.50601105
142,대통령기록관,50,0,127.2732498,36.5016562
143,국무조정실,50,0,127.2709624,36.50306351
144,대평동복합커뮤니티센터,50,0,127.2792,36.47096104
145,"공정거래위원회, 조세심판원",50,0,127.2684511,36.50420041
146,국가보훈처,50,0,127.2612833,36.50319624
147,보건복지부,50,0,127.2621103,36.50254494
148,우정사업본부,50,0,127.2592044,36.50472798
149,"법제처, 국민권익위원회",50,0,127.2595173,36.50609305
150,"국토교통부, 환경부, 행복도시건설청",50,0,127.2631716,36.50533483
151,우체국,50,0,127.2473289,36.51142724
152,아름동행정복지센터,50,0,127.2468898,36.51235152
153,세종경찰서,50,0,127.2948741,36.58822903
154,세종부강우체국,50,0,127.3670597,36.52996375
155,고운동 복합커뮤니티센터(남측),50,0,127.2353642,36.50497409
156,고운동복합커뮤니티센터,50,0,127.2365898,36.51972438
157,보람동 119안전센터,50,0,127.2913695,36.4779284
158,보람동 경찰지구대,50,0,127.2909996,36.47774211
159,한국법제연구원,50,0,127.3021109,36.49219783
160,국세청,50,0,127.2603063,36.48507981
161,행복도시홍보관,50,0,127.2702929,36.48967496
162,한국해양교통안전공단,50,0,127.2428834,36.51450726
163,다정동 복합커뮤니티센터,50,0,127.2503429,36.49452387
164,경찰지구대,50,0,127.2470605,36.51143326
165,조치원우체국,50,0,127.2981874,36.60242909
166,도시통합정보센터,50,0,127.2568341,36.49345401
167,"산업통상자원부, 중앙토지수용위원회",50,0,127.2601638,36.49963725
168,대전지방법원조치원등기소,50,0,127.2990044,36.60446862
169,세종시자율방범연합대,50,0,127.3027096,36.59805098
170,청사원예시설,50,0,127.2681206,36.5054996
171,새롬동복합커뮤니티센터,50,0,127.2518155,36.48511097
172,보람동주민센터,50,0,127.290614,36.47877463
173,전의119안전센터,50,0,127.1923427,36.68648353
174,도담동주민센터,50,0,127.2617462,36.51540551
175,송학보건진료소,50,0,127.1902482,36.53814426
176,세종경찰서 전의파출소,50,0,127.2034184,36.67908729
177,전의면보건지소,50,0,127.2048256,36.67848968
178,"농림축산식품부, 해양수산부",50,0,127.2670797,36.50492438
179,119안전센터,50,0,127.2466424,36.51142011
180,국립세종도서관,50,0,127.2683884,36.49882469
181,부강면사무소,50,0,127.3709017,36.52973248
182,소정면사무소,50,0,127.1582905,36.72236567
183,전동치안센터,50,0,127.2650162,36.65590843
184,조치원읍행정복지센터,50,0,127.2984603,36.6045482
185,세종특별자치시보건소,50,0,127.296515,36.60567621
186,"산업통상자원부, 중앙토지수용위원회",50,0,127.2611603,36.49913131
187,"산업통상자원부, 중앙토지수용위원회",50,0,127.2622755,36.4989975
188,소정면119지역대,50,0,127.1582154,36.72166251
189,정부세종컨벤션센터,50,0,127.2711722,36.50037547
190,부강면사무소,50,0,127.3707531,36.52942608
191,부강면사무소,50,0,127.3711467,36.52966104
192,부강면사무소,50,0,127.3709071,36.52925342
193,사무실(office)-금융,50,0,127.2822115,36.46523872
194,세종에덴요양원-금융,50,0,127.2990155,36.6018655
195,사무실(office)-금융,50,0,127.3262352,36.55848044
196,사무실(office)-금융,50,0,127.3674815,36.52829963
197,사무실(office)-금융,50,0,127.3674294,36.529255
198,부용농협-금융,50,0,127.3669158,36.5294279
199,사무실(office)-금융,50,0,127.3686915,36.53025639
200,사무실(office)-금융,50,0,127.3688721,36.52998615
201,금강프라자-금융,50,0,127.2624715,36.47932535
202,NH농협 세종통합센터-금융,50,0,127.2625845,36.50697721
203,사무실(office)-금융,50,0,127.3299551,36.48039873
204,사무실(office)-금융,50,0,127.2057334,36.49752791
205,사무실(office)-금융,50,0,127.2067331,36.49779056
206,사무실(office)-금융,50,0,127.2949874,36.58530303
207,사무실(office)-금융,50,0,127.2753495,36.54411463
208,사무실(office)-금융,50,0,127.2986419,36.59971473
209,사무실(office)-금융,50,0,127.2980419,36.59984396
210,사무실(office)-금융,50,0,127.2636725,36.58861736
211,사무실(office)-금융,50,0,127.2815112,36.46588685
212,사무실(office)-금융,50,0,127.2815222,36.46604048
213,사무실(office)-금융,50,0,127.2815647,36.46614234
214,사무실(office)-금융,50,0,127.2816408,36.46636164
215,사무실(office)-금융,50,0,127.2816156,36.46753346
216,사무실(office)-금융,50,0,127.28167,36.4679599
217,사무실(office)-금융,50,0,127.2991506,36.60118703
218,사무실(office)-금융,50,0,127.2999068,36.60169618
219,사무실(office)-금융,50,0,127.2999758,36.60173969
220,사무실(office)-금융,50,0,127.2999231,36.6018409
221,사무실(office)-금융,50,0,127.2997589,36.60188509
222,욱일아파트-금융,50,0,127.2941812,36.6029311
223,사무실(office)-금융,50,0,127.301015,36.60129344
224,사무실(office)-금융,50,0,127.3016281,36.60003979
225,사무실(office)-금융,50,0,127.3017095,36.59994764
226,사무실(office)-금융,50,0,127.3020703,36.59737949
227,동세종농협 연흥지점-금융,50,0,127.3470426,36.53572221
228,대전충남우유농협협동-금융,50,0,127.2516635,36.51637965
229,연서면농협봉암지점-금융,50,0,127.2837025,36.56265775
230,사무실(office)-금융,50,0,127.2838884,36.56274267
231,사무실(office)-금융,50,0,127.2990843,36.60024708
232,사무실(office)-금융,50,0,127.2990343,36.60057174
233,사무실(office)-금융,50,0,127.2991483,36.60057786
234,사무실(office)-금융,50,0,127.3002872,36.60040656
235,사무실(office)-금융,50,0,127.3010523,36.60049123
236,반도유보라부동산-부동산업,50,0,127.2606407,36.51309339
237,해성부동산-부동산업,50,0,127.2530833,36.50486326
238,세종시으뜸공인중개사사무소-부동산업,50,0,127.2570773,36.48991893
239,The다정공인중개사사무소-부동산업,50,0,127.2557866,36.49300208
240,부동산채널공인중개사사무소-부동산업,50,0,127.2530833,36.50486326
241,세종재벌공인중개사사무소-부동산업,50,0,127.2812918,36.46510333
242,세종행복한공인중개사사무소-부동산업,50,0,127.2568699,36.49177416
243,이도공인중개사사무소-부동산업,50,0,127.2971042,36.58706919
244,세종꿈공인중개사-부동산업,50,0,127.2406285,36.5056498
245,모닝시티공인중개사사무소-부동산업,50,0,127.2558403,36.49206514
246,세종센텀공인중개사사무소-부동산업,50,0,127.2530833,36.50486326
247,세인공인중개사사무소-부동산업,50,0,127.2361867,36.52029325
248,도시건축공인중개사사무소-부동산업,50,0,127.2397991,36.50256235
249,홍자매공인중개사사무소-부동산업,50,0,127.2960514,36.48506332
250,새롬영화공인중개사사무소-부동산업,50,0,127.246783,36.47993195
251,olleh-부동산업,50,0,127.3306637,36.54945646
252,천지인-부동산업,50,0,127.2606407,36.51309339
253,만능공인중개사사무소-부동산업,50,0,127.2606407,36.51309339
254,현대엠코공인중개사사무소-부동산업,50,0,127.2453131,36.50147084
255,해뜨는공인중개사사무소-부동산업,50,0,127.2962422,36.47753922
256,에비뉴힐공인중개사사무소-부동산업,50,0,127.262186,36.49496142
257,세종로정은영부동산-부동산업,50,0,127.3672881,36.51121031
258,엔젤탑공인중개사사무소-부동산업,50,0,127.2878367,36.47780478
259,세종연두공인중개사사무소-부동산업,50,0,127.2482071,36.49539687
260,세종즐거운공인중개사사무소-부동산업,50,0,127.2486635,36.48397227
261,금송공인중개사사무소-부동산업,50,0,127.3294667,36.55096377
262,오케이세종공인중개사사무소-부동산업,50,0,127.2453131,36.50147084
263,세종누리공인중개사사무소-부동산업,50,0,127.2587739,36.49108305
264,연서공인중개사사무소-부동산업,50,0,127.2787123,36.55918403
265,한마음공인중개사사무소-부동산업,50,0,127.2562005,36.48940879
266,세종초이스공인중개사사무소-부동산업,50,0,127.2568222,36.4850868
267,롯데캐슬공인중개사사무소-부동산업,50,0,127.2458824,36.48649617
268,더정다운공인중개사사무소-부동산업,50,0,127.2572479,36.50828685
269,상록부동산-부동산업,50,0,127.2689126,36.54404707
270,초원공인중개사사무소-부동산업,50,0,127.3515398,36.53074535
271,과학벨트공인중개사사무소-부동산업,50,0,127.328894,36.48019666
272,시티사랑공인중개사사무소-부동산업,50,0,127.2523942,36.48364422
273,세종The즐거운공인중개사사무소-부동산업,50,0,127.2486635,36.48397227
274,아름솔로몬-부동산업,50,0,127.2485063,36.49562406
275,하나부동산-부동산업,50,0,127.2523942,36.48364422
276,킹콩공인중개사사무소-부동산업,50,0,127.3014758,36.48501408
277,명동부동산-부동산업,50,0,127.2562005,36.48940879
278,153부동산-부동산업,50,0,127.2624794,36.47931803
279,길광부동산-부동산업,50,0,127.2562005,36.48940879
280,복덕방-부동산업,50,0,127.2485063,36.49562406
281,한신부동산-부동산업,50,0,127.2485063,36.49562406
282,썬떰시티-부동산업,50,0,127.2485063,36.49562406
283,포스코부동산-부동산업,50,0,127.2562005,36.48940879
284,국제공인중개사-부동산업,50,0,127.2624794,36.47931803
285,신조부동산-부동산업,50,0,127.2572369,36.49541737
286,참조은부동산-부동산업,50,0,127.2568442,36.48511397
287,강창부동산-부동산업,50,0,127.2523942,36.48364422
288,신세계부동산-부동산업,50,0,127.2624501,36.5083011
289,뉴성실부동산-부동산업,50,0,127.2510038,36.48663657
290,더블유부동산-부동산업,50,0,127.2510038,36.48663657
291,다조아부동산-부동산업,50,0,127.2524967,36.48459115
292,가산부동산-부동산업,50,0,127.2568442,36.48511397
293,짱부동산-부동산업,50,0,127.2485063,36.49562406
294,롯데킹부동산-부동산업,50,0,127.2459205,36.48602777
295,멘토부동산-부동산업,50,0,127.2562005,36.48940879
296,눈높이-부동산업,50,0,127.2435737,36.49322268
297,연두부동산-부동산업,50,0,127.2485063,36.49562406
298,그린부동산-부동산업,50,0,127.2486071,36.49443508
299,365부동산-부동산업,50,0,127.2502313,36.48688406
300,세종지안공인중개사-부동산업,50,0,127.260071,36.48143901
301,션텀공인중개사-부동산업,50,0,127.2485063,36.49562406
302,마라톤부동산-부동산업,50,0,127.2562005,36.48940879
303,운좋은부동산-부동산업,50,0,127.2523942,36.48364422
304,지원공인중개사사무소-부동산업,50,0,127.3634512,36.52849337
305,덕천원주민부동산-부동산업,50,0,127.2908988,36.59108787
306,베가공인중개사사무소-부동산업,50,0,127.2353452,36.51957589
307,행복한부동산컨설팅-부동산업,50,0,127.3669219,36.52876419
308,소나무공인중개사-부동산업,50,0,127.260071,36.48143901
309,세종일등공인중개사사무소-부동산업,50,0,127.2568221,36.49210731
310,부자공인중개사사무소-부동산업,50,0,127.2770909,36.47292763
311,세경공인중개사사무소-부동산업,50,0,127.2499677,36.50033762
312,유니온공인중개사-부동산업,50,0,127.2568221,36.49210731
313,부동산-부동산업,50,0,127.2459205,36.48602777
314,태양부동산-부동산업,50,0,127.2562005,36.48940879
315,The행복공인중개사사무소-부동산업,50,0,127.2634551,36.51063245
316,세종부동산컨설팅공인중개사사무소-부동산업,50,0,127.2315671,36.50758347
317,주황-부동산업,50,0,127.2485063,36.49562406
318,참좋은부동산-부동산업,50,0,127.2492319,36.49561961
319,세종예미지행운공인중개사사무소-부동산업,50,0,127.2568222,36.4850868
320,세종해냄공인중개사-부동산업,50,0,127.260071,36.48143901
321,헌대가온부동산-부동산업,50,0,127.2453284,36.49528857
322,세종시티공인중개사사무소-부동산업,50,0,127.2660978,36.51570457
323,다정한공인중개사사무소-부동산업,50,0,127.2489727,36.49471676
324,세종청주공인중개사사무소-부동산업,50,0,127.2600488,36.48260145
325,명동공인중개사사무소-부동산업,50,0,127.2561319,36.48491127
326,솔로몬공인중개사사무소-부동산업,50,0,127.246783,36.47993195
327,잘이음부동산중개-부동산업,50,0,127.2576833,36.48606548
328,부동산나라공인중개사사무소-부동산업,50,0,127.2453131,36.50147084
329,옥수공인중개사사무소-부동산업,50,0,127.2561319,36.48491127
330,세종수호공인중개사사무소-부동산업,50,0,127.2570773,36.48991893
331,하나플러스공인중개사사무소-부동산업,50,0,127.2588677,36.48591963
332,세종이편한공인중개사사무소-부동산업,50,0,127.2969322,36.48021992
333,하이-부동산업,50,0,127.2546157,36.49289563
334,다정공인중개사사무소-부동산업,50,0,127.2557866,36.49300208
335,세종부동산114공인중개사사무소-부동산업,50,0,127.2883823,36.47671755
336,비타민공인중개사사무소-부동산업,50,0,127.2487168,36.49231791
337,세종지원공인중개사사무소-부동산업,50,0,127.2747302,36.55496023
338,해안공인중개사사무소-부동산업,50,0,127.2551575,36.49226816
339,세종갤러리공인중개사무소-부동산업,50,0,127.2345465,36.50544871
340,세종소망공인중개사사무소-부동산업,50,0,127.2962421,36.47754823
341,중흥공인중개사-부동산업,50,0,127.3005811,36.48149407
342,마이더스터치-부동산업,50,0,127.2797133,36.46326433
343,전문부동산-부동산업,50,0,127.2914531,36.5756805
344,대한민국세종시약속의땅부동산-부동산업,50,0,127.2924226,36.58331049
345,일번지부동산-부동산업,50,0,127.290467,36.57354778
346,장원-부동산업,50,0,127.2180801,36.43994932
347,수봉공인중개사-부동산업,50,0,127.2606235,36.48084763
348,행복도시공인중개사-부동산업,50,0,127.2571609,36.48234018
349,세종대박공인중개사-부동산업,50,0,127.2571609,36.48234018
350,한솔공인중개사-부동산업,50,0,127.2606235,36.48084763
351,강동부동산-부동산업,50,0,127.2941772,36.60292216
352,삼성부동산중개법인-부동산업,50,0,127.2820163,36.46760409
353,상희공인중개사-부동산업,50,0,127.2940818,36.60481412
354,고향산천부동산중개사무소-부동산업,50,0,127.282472,36.56213566
355,부동산컨설팅-부동산업,50,0,127.2977807,36.59504887
356,세종경매공인중개사사무소-부동산업,50,0,127.3003659,36.59961517
357,새마루-부동산업,50,0,127.1964476,36.707878
358,세종원주민공인중개사-부동산업,50,0,127.2837977,36.56132352
359,세종경성개발-부동산업,50,0,127.2827159,36.66011605
360,고은세종시행사-부동산업,50,0,127.2618123,36.48023315
361,에이스공인중개사-부동산업,50,0,127.2205189,36.49940985
362,아이콤타워-부동산업,50,0,127.2599232,36.48290709
363,세종시민개발-부동산업,50,0,127.2803848,36.46062778
364,엘지-부동산업,50,0,127.2818096,36.46703507
365,세종시탑-부동산업,50,0,127.2818096,36.46703507
366,대명부동산-부동산업,50,0,127.298045,36.59300468
367,명동부동산-부동산업,50,0,127.3030679,36.59991939
368,한마음공인중개사-부동산업,50,0,127.2756807,36.5500544
369,세종농가구전문땅-부동산업,50,0,127.2933164,36.5833248
370,종합컨설턴트-부동산업,50,0,127.2983562,36.59197013
371,청사공인중개사-부동산업,50,0,127.2919982,36.57838736
372,죽림부동산-부동산업,50,0,127.2967199,36.59494348
373,신동아공인중개사-부동산업,50,0,127.2912916,36.60313033
374,세종금강투자개발-부동산업,50,0,127.2052047,36.49715491
375,다복부동산-부동산업,50,0,127.296977,36.59000638
376,대박부동산-부동산업,50,0,127.2913213,36.57542737
377,넘버원-부동산업,50,0,127.2814341,36.46661825
378,세종모범공인중개사-부동산업,50,0,127.2901856,36.60306067
379,대지-부동산업,50,0,127.2820127,36.4680006
380,세종도원-부동산업,50,0,127.2814341,36.46661825
381,조치원부동산-부동산업,50,0,127.2997875,36.59682704
382,세종킹부동산-부동산업,50,0,127.2606235,36.48084763
383,신도시공인중개사-부동산업,50,0,127.2571609,36.48234018
384,세종사랑부동산-부동산업,50,0,127.2590393,36.47727798
385,세종명품공인중개사-부동산업,50,0,127.2590393,36.47727798
386,세종제일공인중개사-부동산업,50,0,127.2590393,36.47727798
387,세종하나부동산-부동산업,50,0,127.2590393,36.47727798
388,21세기공인중개사사무소-부동산업,50,0,127.2937671,36.59273609
389,뉴미림공인중개사무소-부동산업,50,0,127.2803848,36.46062778
390,청운부동산컨설팅-부동산업,50,0,127.288579,36.58813611
391,금강공인중개사사무소-부동산업,50,0,127.2812437,36.4666892
392,이규순공인중개사사무소-부동산업,50,0,127.2814649,36.46690682
393,충남부동산공인중개사무소-부동산업,50,0,127.2824462,36.562505
394,만인공인중개사-부동산업,50,0,127.2908988,36.59108787
395,태평양부동산사무소-부동산업,50,0,127.2990302,36.59158657
396,번암주공공인중개사-부동산업,50,0,127.2935987,36.58668798
397,이화부동산-부동산업,50,0,127.296767,36.59097845
398,연기공인중개사사무소-부동산업,50,0,127.283046,36.56288711
399,대신부동산-부동산업,50,0,127.297708,36.59073165
400,가인공인중개사-부동산업,50,0,127.1967983,36.68062848
401,뉴스타공인중개사사무소-부동산업,50,0,127.3478336,36.53592517
402,삼성공인중개사사무소-부동산업,50,0,127.3005399,36.6001479
403,일사천리종합컨설턴트-부동산업,50,0,127.2983562,36.59197013
404,경성공인중개사-부동산업,50,0,127.2908712,36.59776565
405,한빛부동산공인중개사사무소-부동산업,50,0,127.2797133,36.46326433
406,조형공인중개사-부동산업,50,0,127.2892701,36.63583198
407,LBA나라공인중개사사무소-부동산업,50,0,127.2939889,36.60519208
408,세종투자개발-부동산업,50,0,127.2224912,36.59900642
409,금강랜드-부동산업,50,0,127.2818981,36.46832436
410,용천-부동산업,50,0,127.2826056,36.46662529
411,공간-부동산업,50,0,127.2886574,36.60028485
412,소암부동산연구소-부동산업,50,0,127.2082667,36.49899573
413,에이원개발-부동산업,50,0,127.2778634,36.55077058
414,세종상가조합-부동산업,50,0,127.2812603,36.4661035
415,다전부동산-부동산업,50,0,127.2926225,36.57732764
416,천사부동산-부동산업,50,0,127.290467,36.57354778
417,성신-부동산업,50,0,127.2820127,36.4680006
418,SR분양사무소-부동산업,50,0,127.2599232,36.48290709
419,세종크로바-부동산업,50,0,127.2809337,36.46521833
420,세종천사공인중개사-부동산업,50,0,127.290467,36.57354778
421,세천년부동산-부동산업,50,0,127.294134,36.58434801
422,에이스부동산-부동산업,50,0,127.2974675,36.59014445
423,가람한스웰시티-부동산업,50,0,127.2599232,36.48290709
424,세종벵크-부동산업,50,0,127.2815623,36.46723185
425,세종시부동산중개법인-부동산업,50,0,127.2784284,36.55487452
426,토지벵크-부동산업,50,0,127.2856235,36.56686792
427,세종시부동산연구소-부동산업,50,0,127.2812831,36.46484192
428,세종가는길-부동산업,50,0,127.2809696,36.46495719
429,세종도안박사-부동산업,50,0,127.2562005,36.48940879
430,금지게-부동산업,50,0,127.2818096,36.46703507
431,고향산천-부동산업,50,0,127.2914531,36.5756805
432,세종경맵동산-부동산업,50,0,127.2975883,36.6051773
433,경성개발-부동산업,50,0,127.2827159,36.66011605
434,해오름공인중개사-부동산업,50,0,127.2927196,36.57770673
435,우정부동산-부동산업,50,0,127.2989388,36.59180233
436,문예식부동산-부동산업,50,0,127.2942236,36.60641911
437,열매공인중개사-부동산업,50,0,127.2975883,36.6051773
438,분양권-부동산업,50,0,127.2815299,36.4671145
439,세종역공인중개사-부동산업,50,0,127.294843,36.60099752
440,신주공부동산-부동산업,50,0,127.2914943,36.59562449
441,럭셔리공인중개사-부동산업,50,0,127.2964607,36.59517627
442,월드부동산-부동산업,50,0,127.2571609,36.48234018
443,황금부동산-부동산업,50,0,127.2909789,36.60309242
444,태진컨설팅-부동산업,50,0,127.2230428,36.49929114
445,행운공인중개사-부동산업,50,0,127.3030792,36.60115411
446,교차로공인중개사-부동산업,50,0,127.2606235,36.48084763
447,명동부동산-부동산업,50,0,127.2971651,36.60376892
448,리치앤골드-부동산업,50,0,127.2074319,36.49876488
449,세종테크노밸리-부동산업,50,0,127.2700532,36.55339963
450,세종새땅공인중개사-부동산업,50,0,127.2054152,36.49730952
451,코리아부동산-부동산업,50,0,127.2590393,36.47727798
452,신안부동산공인중개사사무소-부동산업,50,0,127.2818848,36.46735095
453,희망연기부동산-부동산업,50,0,127.2803559,36.46133958
454,모던코리아컨설팅-부동산업,50,0,127.2205189,36.49940985
455,랜드부동산-부동산업,50,0,127.2606235,36.48084763
456,윤복부동산-부동산업,50,0,127.210546,36.5009845
457,동서남북공인중개사-부동산업,50,0,127.22072,36.49938413
458,대박부동산-부동산업,50,0,127.2226639,36.49922558
459,드림공인중개사-부동산업,50,0,127.2590393,36.47727798
460,삼성부동산-부동산업,50,0,127.2816735,36.46848522
461,스카이공인중개사-부동산업,50,0,127.2807218,36.46279276
462,귀빈부동산-부동산업,50,0,127.2606235,36.48084763
463,소나무공인중개사-부동산업,50,0,127.2590393,36.47727798
464,서면공인중개사-부동산업,50,0,127.2785981,36.55824608
465,원주민공인중개사-부동산업,50,0,127.2060495,36.67970822
466,한빛부동산-부동산업,50,0,127.2800689,36.46341968
467,신흥주공공인중개사-부동산업,50,0,127.2886976,36.59469761
468,카라공인중개사-부동산업,50,0,127.2933164,36.5833248
469,갤러리부동산-부동산업,50,0,127.2570996,36.48992808
470,세종대왕부동산-부동산업,50,0,127.2226639,36.49922558
471,백억부동산-부동산업,50,0,127.2606235,36.48084763
472,큰별부동산-부동산업,50,0,127.2562005,36.48940879
473,대보부동산-부동산업,50,0,127.2562005,36.48940879
474,태양부동산-부동산업,50,0,127.2642273,36.45377909
475,조은터공인중개사-부동산업,50,0,127.2490499,36.47515174
476,바로바로공인중개사-부동산업,50,0,127.2606235,36.48084763
477,세종시대부동산-부동산업,50,0,127.2606235,36.48084763
478,이서준공인중개사-부동산업,50,0,127.2300709,36.49971521
479,수연공인중개사-부동산업,50,0,127.228086,36.4983866
480,으뜸부동산-부동산업,50,0,127.2570996,36.48992808
481,미림부동산-부동산업,50,0,127.2802711,36.46086142
482,스카이부동산-부동산업,50,0,127.2115064,36.45467716
483,하나부동산-부동산업,50,0,127.2809696,36.46495719
484,프라임부동산-부동산업,50,0,127.2571609,36.48234018
485,대륜부동산-부동산업,50,0,127.2606235,36.48084763
486,세종현대부동산-부동산업,50,0,127.2818334,36.46565634
487,풍수부동산-부동산업,50,0,127.2804354,36.56008664
488,서승남사무소-부동산업,50,0,127.2119367,36.50143529
489,국제공인중개사-부동산업,50,0,127.2618123,36.48023315
490,황제공인중개사-부동산업,50,0,127.2199588,36.49960446
491,세종부동산컨설팅-부동산업,50,0,127.2784284,36.55487452
492,산들공인중개사사무소-부동산업,50,0,127.2889488,36.58802116
493,럭셔리공인중개사사무소-부동산업,50,0,127.296551,36.59507767
494,백부동산-부동산업,50,0,127.2590393,36.47727798
495,명동부동산-부동산업,50,0,127.2606235,36.48084763
496,고구마공인중개사-부동산업,50,0,127.2808033,36.4612161
497,명당부동산-부동산업,50,0,127.2590393,36.47727798
498,세종BRT부동산-부동산업,50,0,127.2571609,36.48234018
499,종마루부동산-부동산업,50,0,127.2590393,36.47727798
500,세종랜드부동산-부동산업,50,0,127.2571609,36.48234018
501,88부동산-부동산업,50,0,127.2606235,36.48084763
502,래미안공인중개사-부동산업,50,0,127.2606235,36.48084763
503,강산랜드공인중개사-부동산업,50,0,127.2927196,36.57770673
504,114공인중개사-부동산업,50,0,127.2590393,36.47727798
505,조은터공인중개사-부동산업,50,0,127.2808033,36.4612161
506,한결부동산-부동산업,50,0,127.2063491,36.49767622
507,건국부동산-부동산업,50,0,127.2856235,36.56686792
508,런던부동산-부동산업,50,0,127.2562005,36.48940879
509,수도삼성부동산-부동산업,50,0,127.2835056,36.56392627
510,연남공인중개사-부동산업,50,0,127.2782402,36.54628482
511,세종2-2더샵부동산-부동산업,50,0,127.2562005,36.48940879
512,삼성부동산-부동산업,50,0,127.2562005,36.48940879
513,다모아부동산-부동산업,50,0,127.2802711,36.46086142
514,주황부동산-부동산업,50,0,127.2562005,36.48940879
515,한울공인중개사-부동산업,50,0,127.2782402,36.54628482
516,두진부동산-부동산업,50,0,127.2800689,36.46341968
517,황제부동산-부동산업,50,0,127.2159652,36.50045247
518,엘지공인중개사사무소-부동산업,50,0,127.2907466,36.59550288
519,대한이엔지-부동산업,50,0,127.2924301,36.5935032
520,한마루부동산-부동산업,50,0,127.2802711,36.46086142
521,대교공인중개사-부동산업,50,0,127.2054152,36.49730952
522,신세계공인중개사-부동산업,50,0,127.2817345,36.46670117
523,다복공인중개사-부동산업,50,0,127.2908988,36.59108787
524,녹지부동산-부동산업,50,0,127.2811727,36.46471509
525,재인공인중개사사무소-부동산업,50,0,127.289886,36.59184787
526,세종중앙공인중개사-부동산업,50,0,127.203858,36.49567695
527,삼성부동산-부동산업,50,0,127.2082667,36.49899573
528,황족세종사무소-부동산업,50,0,127.22072,36.49938413
529,유근완공인중개사-부동산업,50,0,127.2283086,36.49845113
530,신연기공인중개사-부동산업,50,0,127.2571609,36.48234018
531,대지부동산-부동산업,50,0,127.2810586,36.54829353
532,혜성공인중개사-부동산업,50,0,127.2599232,36.48290709
533,신전의부동산-부동산업,50,0,127.2045749,36.67949111
534,개발컨설팅-부동산업,50,0,127.22072,36.49938413
535,세종명가부동산-부동산업,50,0,127.2159652,36.50045247
536,연기공인중개사-부동산업,50,0,127.2803205,36.46154665
537,E-세종공인중개사사무소-부동산업,50,0,127.2816672,36.46795346
538,세광부동산-부동산업,50,0,127.2808404,36.46324408
539,신연기공인중개사사무소-부동산업,50,0,127.2806497,36.46214344
540,희밍공인중개사-부동산업,50,0,127.2803205,36.46154665
541,세종부동산사무소-부동산업,50,0,127.2995731,36.5995294
542,효자공인중개사사무소-부동산업,50,0,127.2905069,36.603378
543,바로바로공인중개사-부동산업,50,0,127.2599232,36.48290709
544,다모공인중개사-부동산업,50,0,127.2571609,36.48234018
545,베스트부동산-부동산업,50,0,127.2775842,36.5447578
546,고려공인중개사-부동산업,50,0,127.2936511,36.610363
547,원주민공인중개사-부동산업,50,0,127.2811841,36.46589576
548,새서울부동산-부동산업,50,0,127.2964665,36.5957711
549,가나공인중개사-부동산업,50,0,127.292893,36.57829354
550,엔젤공인중개사-부동산업,50,0,127.2919539,36.57712541
551,세종1번지공인중개사-부동산업,50,0,127.2606235,36.48084763
552,명당부동산-부동산업,50,0,127.2560722,36.51448891
553,한국감정원-부동산업,50,0,127.2808033,36.4612161
554,운산공인중개사-부동산업,50,0,127.289886,36.59184787
555,대성부동산-부동산업,50,0,127.2934343,36.59491504
556,다원공인중개사사무소-부동산업,50,0,127.3002493,36.59518956
557,샛터공인중개사사무소-부동산업,50,0,127.2909315,36.59728837
558,플러스공인중개사-부동산업,50,0,127.2556171,36.47456202
559,동세종부동산중개사무소-부동산업,50,0,127.3251589,36.5582303
560,국제공인중개사-부동산업,50,0,127.2606235,36.48084763
561,이순이공인중개사-부동산업,50,0,127.289886,36.59184787
562,애플공인중개사-부동산업,50,0,127.2606235,36.48084763
563,세종첫마을부동산-부동산업,50,0,127.2571609,36.48234018
564,강남부동산컨설팅-부동산업,50,0,127.2997875,36.59682704
565,이수종합개발-부동산업,50,0,127.2817345,36.46670117
566,성공공인중개사-부동산업,50,0,127.2820163,36.46760409
567,두원-부동산업,50,0,127.2103895,36.49440458
568,세종킹스타운-부동산업,50,0,127.2218565,36.49178527
569,비전개발-부동산업,50,0,127.2216586,36.4379089
570,명성공인중개사사무소-부동산업,50,0,127.2886976,36.59469761
571,대명공인중개사-부동산업,50,0,127.2803848,36.46062778
572,더원-부동산업,50,0,127.2573754,36.57786129
573,호탄-부동산업,50,0,127.2936963,36.59314121
574,왕관-부동산업,50,0,127.2818334,36.46565634
575,신화공인중개사-부동산업,50,0,127.2490499,36.47515174
576,한마음공인중개사-부동산업,50,0,127.2556171,36.47456202
577,거성종합개발-부동산업,50,0,127.2806799,36.46854233
578,풍년부동산-부동산업,50,0,127.2546661,36.47481744
579,루트-부동산업,50,0,127.2803205,36.46154665
580,래미안대박공인중개사-부동산업,50,0,127.2556171,36.47456202
581,동명산업-부동산업,50,0,127.2599232,36.48290709
582,베스트부동산-부동산업,50,0,127.277081,36.54482685
583,이렉스-부동산업,50,0,127.2850543,36.5934682
584,대복공인중개사사무소-부동산업,50,0,127.2766099,36.54384167
585,세종행복한부동산컨설팅-부동산업,50,0,127.3478336,36.53592517
586,참샘-부동산업,50,0,127.2599232,36.48290709
587,장평-부동산업,50,0,127.2053961,36.49699397
588,미래공인중개사-부동산업,50,0,127.2938707,36.60589432
589,세종힐링부동산-부동산업,50,0,127.2147091,36.49329755
590,태양부동산-부동산업,50,0,127.2637624,36.4533887
591,우리땅부동산-부동산업,50,0,127.2808033,36.4612161
592,에이스-부동산업,50,0,127.2815623,36.46723185
593,라온부동산-부동산업,50,0,127.2490615,36.50864115
594,제정부동산-부동산업,50,0,127.2066786,36.49820112
595,김복순공인중개사-부동산업,50,0,127.2775842,36.5447578
596,성실공인중개사-부동산업,50,0,127.2606235,36.48084763
597,부자공인중개사-부동산업,50,0,127.2781183,36.54858218
598,세종뜰부동산-부동산업,50,0,127.3047699,36.47857154
599,한양개발부동산-부동산업,50,0,127.2829916,36.46953857
600,복덕방부동산-부동산업,50,0,127.2606235,36.48084763
601,소망부동산-부동산업,50,0,127.2590393,36.47727798
602,금강부동산-부동산업,50,0,127.2205189,36.49940985
603,서정부동산-부동산업,50,0,127.2057443,36.49787047
604,중앙공인중개사-부동산업,50,0,127.2606235,36.48084763
605,세종시레미안공인중개사-부동산업,50,0,127.2556171,36.47456202
606,장산종합건설-부동산업,50,0,127.2784284,36.55487452
607,천우공인중개사사무소-부동산업,50,0,127.3678036,36.52744407
608,대평공인중개사-부동산업,50,0,127.2802711,36.46086142
609,미래공인중개사-부동산업,50,0,127.2490499,36.47515174
610,파랑새부동산-부동산업,50,0,127.2938707,36.60589432
611,다오샘부동산-부동산업,50,0,127.2562005,36.48940879
612,세종타운공인중개사-부동산업,50,0,127.2060296,36.49725954
613,신도시공인중개사-부동산업,50,0,127.2055477,36.49744559
614,대호부동산컨설팅-부동산업,50,0,127.2958048,36.59724517
615,베테랑부동산-부동산업,50,0,127.2562005,36.48940879
616,황금공인중개사-부동산업,50,0,127.2590393,36.47727798
617,행운부동산-부동산업,50,0,127.2515217,36.47572602
618,엄지부동산-부동산업,50,0,127.2808033,36.4612161
619,믿음공인중개사-부동산업,50,0,127.2606235,36.48084763
620,오케이부동산-부동산업,50,0,127.2814341,36.46661825
621,이혜심부동산-부동산업,50,0,127.2578903,36.48659849
622,길산부동산-부동산업,50,0,127.2939889,36.60519208
623,봉황공인중개사-부동산업,50,0,127.221712,36.4995348
624,부자마을공인중개사-부동산업,50,0,127.2808248,36.46492928
625,부강부동산컨설팅-부동산업,50,0,127.3671872,36.52909905
626,세종탑부동산-부동산업,50,0,127.2912916,36.60313033
627,선진공인중개사-부동산업,50,0,127.2919539,36.57712541
628,한성공인중개사-부동산업,50,0,127.2898559,36.60488815
629,그린부동산-부동산업,50,0,127.2814341,36.46661825
630,포스코부동산-부동산업,50,0,127.2606235,36.48084763
631,OK부동산-부동산업,50,0,127.2606235,36.48084763
632,신세계공인중개사-부동산업,50,0,127.2606235,36.48084763
633,황금부동산-부동산업,50,0,127.2777929,36.54513757
634,길사랑공인중개사-부동산업,50,0,127.2606235,36.48084763
635,세종114공인중개사-부동산업,50,0,127.2571609,36.48234018
636,첫마을탑부동산-부동산업,50,0,127.2590393,36.47727798
637,성신공인중개사무소-부동산업,50,0,127.2819508,36.46745048
638,중원부동산-부동산업,50,0,127.2820127,36.4680006
639,글로벌부동산컨설팅-부동산업,50,0,127.2946573,36.60175343
640,부동산전문컨설팅-부동산업,50,0,127.203858,36.49567695
641,One+공인중개사-부동산업,50,0,127.22072,36.49938413
642,더샵힐부동산-부동산업,50,0,127.2562005,36.48940879
643,덕수부동산-부동산업,50,0,127.2562005,36.48940879
644,금남부동산-부동산업,50,0,127.2813358,36.46638334
645,마실부동산-부동산업,50,0,127.2845088,36.42218809
646,청주부동산-부동산업,50,0,127.2599232,36.48290709
647,KD토지전문땅-부동산업,50,0,127.2636671,36.45284737
648,파랑새부동산-부동산업,50,0,127.2490615,36.50864115
649,티에이치공인중개사-부동산업,50,0,127.2599232,36.48290709
650,다오공인중개사-부동산업,50,0,127.2205189,36.49940985
651,황제개발컨설팅-부동산업,50,0,127.2159652,36.50045247
652,세종제일공인중개사-부동산업,50,0,127.2060495,36.67970822
653,초록공인중개사-부동산업,50,0,127.2836053,36.56401699
654,메이져시티공인중개사-부동산업,50,0,127.2599232,36.48290709
655,일등공인중개사-부동산업,50,0,127.2053961,36.49699397
656,성원부동산컨설팅-부동산업,50,0,127.2899931,36.60455552
657,올래공인중개사-부동산업,50,0,127.2515217,36.47572602
658,세종특별시공인중개사-부동산업,50,0,127.2515217,36.47572602
659,세방공인중개사-부동산업,50,0,127.2784284,36.55487452
660,대평공인중개사-부동산업,50,0,127.2818981,36.46832436
661,OK부동산-부동산업,50,0,127.2599232,36.48290709
662,부자공인중개사-부동산업,50,0,127.2515217,36.47572602
663,천지공인중개사-부동산업,50,0,127.2226639,36.49922558
664,장군부동산컨설팅-부동산업,50,0,127.2205189,36.49940985
665,황금나라부동산-부동산업,50,0,127.2562005,36.48940879
666,뜰공인중개사-부동산업,50,0,127.2546661,36.47481744
667,씨엔인부동산-부동산업,50,0,127.2618123,36.48023315
668,늘푸른공인중개사-부동산업,50,0,127.2833344,36.56431276
669,대우공인중개사-부동산업,50,0,127.2490499,36.47515174
670,길사랑부동산-부동산업,50,0,127.260071,36.48143901
671,대박부동산공인중개사사무소-부동산업,50,0,127.2916804,36.60583626
672,청정공인중개사사무소-부동산업,50,0,127.3514531,36.52909564
673,신도시공인중개사사무소-부동산업,50,0,127.2816672,36.46795346
674,세종시전문공인중개사사무소-부동산업,50,0,127.2914531,36.5756805
675,대평랜드-부동산업,50,0,127.2818981,36.46832436
676,세종미래산업단지-부동산업,50,0,127.2908988,36.59108787
677,에스디-부동산업,50,0,127.2808033,36.4612161
678,에스앤티-부동산업,50,0,127.2764266,36.54433622
679,하랑부동산중개법인-부동산업,50,0,127.2620271,36.47993707
680,세종경매공인중개사-부동산업,50,0,127.2975883,36.6051773
681,뉴딜공인중개사-부동산업,50,0,127.2939532,36.60542618
682,새롬-부동산업,50,0,127.2596973,36.48318507
683,라임디앤씨-부동산업,50,0,127.2590393,36.47727798
684,고운디앤씨-부동산업,50,0,127.2808033,36.4612161
685,다솜개발-부동산업,50,0,127.2766099,36.54384167
686,푸르지오공인중개사사무소-부동산업,50,0,127.289886,36.59184787
687,우원디엔씨-부동산업,50,0,127.2620271,36.47993707
688,이도컴퍼니-부동산업,50,0,127.2596973,36.48318507
689,바로어소시에이츠-부동산업,50,0,127.2605003,36.48207253
690,조은공인중개사사무소-부동산업,50,0,127.2437487,36.50393027
691,오렌지-부동산업,50,0,127.2608395,36.48043441
692,더샵기획-부동산업,50,0,127.2337497,36.51606894
693,호아센-부동산업,50,0,127.2605003,36.48207253
694,현진디앤씨-부동산업,50,0,127.2808033,36.4612161
695,동서이엔씨-부동산업,50,0,127.2928217,36.60448222
696,트리플에이파트너스-부동산업,50,0,127.2620271,36.47993707
697,S&T-부동산업,50,0,127.2620271,36.47993707
698,세종재벌공인중개사사무소-부동산업,50,0,127.2580941,36.49331385
699,하나부동산중개법인-부동산업,50,0,127.2614199,36.47924839
700,한올디앤씨-부동산업,50,0,127.2596973,36.48318507
701,문예식부동산컨설팅-부동산업,50,0,127.3033809,36.6036432
702,씨앤인-부동산업,50,0,127.2618123,36.48023315
703,비오케이랜드-부동산업,50,0,127.2815421,36.46699741
704,마루컴퍼니-부동산업,50,0,127.2596973,36.48318507
705,이지혜감정평가사사무소-부동산업,50,0,127.2746334,36.50432933
706,세진공인중개사사무소-부동산업,50,0,127.2453131,36.50147084
707,에스와이지컨설팅-부동산업,50,0,127.2571609,36.48234018
708,세종시드니-부동산업,50,0,127.2596973,36.48318507
709,황제부동산-부동산업,50,0,127.216258,36.50020205
710,세종시부동산중개-부동산업,50,0,127.2756807,36.5500544
711,욱일공인중개사-부동산업,50,0,127.2941772,36.60292216
712,천우공인중개사-부동산업,50,0,127.3673859,36.52800962
713,세종다모아공인중개사사무소-부동산업,50,0,127.2775932,36.54499217
714,대동공인중개사사무소-부동산업,50,0,127.2103895,36.49440458
715,세종가나공인중개사-부동산업,50,0,127.292893,36.57829354
716,조은터공인중개사사무소-부동산업,50,0,127.203858,36.49567695
717,미림공인중개사사무소-부동산업,50,0,127.2803559,36.46133958
718,세종금강공인중개사사무소-부동산업,50,0,127.3651608,36.531098
719,터사랑공인중개사사무소-부동산업,50,0,127.3649288,36.53079035
720,세종시일등공인중개사사무소-부동산업,50,0,127.2054961,36.4970397
721,하늘땅부동산중개사무소-부동산업,50,0,127.199762,36.67966614
722,과학벨트부동산-부동산업,50,0,127.328459,36.48016718
723,세종황토공인중개사사무소-부동산업,50,0,127.2054152,36.49730952
724,대교부동산-부동산업,50,0,127.2064461,36.49801032
725,대한부동산-부동산업,50,0,127.2816914,36.46653869
726,토박이공인중개사사무소-부동산업,50,0,127.2786176,36.54653945
727,대성공인중개사사무소-부동산업,50,0,127.2116236,36.50148729
728,세종88부동산-부동산업,50,0,127.259329,36.48084862
729,세종시114공인중개사사무소-부동산업,50,0,127.2052047,36.49715491
730,유명부동산-부동산업,50,0,127.2986019,36.59938851
731,부강세종시공인중개사사무소-부동산업,50,0,127.3606357,36.53274109
732,다전공인중개사사무소-부동산업,50,0,127.2926879,36.57749926
733,성록공인중개사-부동산업,50,0,127.2568935,36.49163912
734,부동산신화-부동산업,50,0,127.1618402,36.72643801
735,세종뉴골드공인중개사사무소-부동산업,50,0,127.2103895,36.49440458
736,세종김복순공인중개사사무소-부동산업,50,0,127.2775932,36.54499217
737,윤복공인중개사사무소-부동산업,50,0,127.2106776,36.50121067
738,명지공인중개사사무소-부동산업,50,0,127.2933416,36.59527497
739,세종타운공인중개사사무소-부동산업,50,0,127.2060501,36.49743992
740,서해중공인중개사-부동산업,50,0,127.2066786,36.49820112
741,다모아공인중개사사무소-부동산업,50,0,127.2803848,36.46062778
742,부동산컨설팅-부동산업,50,0,127.1921186,36.53514327
743,LBA행복한부동산-부동산업,50,0,127.3478336,36.53592517
744,한양랜드공인중개사-부동산업,50,0,127.2490615,36.50864115
745,세종시티공인중개사사무소-부동산업,50,0,127.2818096,36.46703507
746,원주민송학랜드부동산-부동산업,50,0,127.1917191,36.5338248
747,남면원주민공인중개사-부동산업,50,0,127.2756807,36.5500544
748,행정수도부동산-부동산업,50,0,127.277081,36.54482685
749,청풍부동산-부동산업,50,0,127.2803559,36.46133958
750,베스트부동산-부동산업,50,0,127.2775932,36.54499217
751,한티공인중개사사무소-부동산업,50,0,127.3638695,36.5319653
752,대운공인중개사-부동산업,50,0,127.2060911,36.49780068
753,태양공인중개사사무소-부동산업,50,0,127.2061115,36.49799007
754,새금부동산중개인사무소-부동산업,50,0,127.2777929,36.54513757
755,청원공인중개사-부동산업,50,0,127.3668485,36.52954786
756,본토공인중개사사무소-부동산업,50,0,127.2103895,36.49440458
757,세종부자공인중개사사무소-부동산업,50,0,127.2781183,36.54858218
758,신행정부동산컨설팅-부동산업,50,0,127.1567624,36.71883224
759,세종토지전문공인중개사사무소-부동산업,50,0,127.2057291,36.49717643
760,세종시첫마을분양상담실-부동산업,50,0,127.2778788,36.4721934
761,녹동부동산-부동산업,50,0,127.3724442,36.52803634
762,축복부동산-부동산업,50,0,127.2571609,36.48234018
763,가람공인중개사사무소-부동산업,50,0,127.3251715,36.55806816
764,땅부자부동산-부동산업,50,0,127.3226328,36.5622354
765,운산공인중개사사무소-부동산업,50,0,127.2907466,36.59550288
766,행운부동산-부동산업,50,0,127.3338584,36.48039571
767,대청부동산-부동산업,50,0,127.3226328,36.5622354
768,롯데부동산-부동산업,50,0,127.2594825,36.48348114
769,풍수공인중개사-부동산업,50,0,127.2794112,36.55971096
770,커피공인중개사사무소-부동산업,50,0,127.295727,36.59351371
771,세종중흥공인중개사-부동산업,50,0,127.2789124,36.55928438
772,상인공인중개사사무소-부동산업,50,0,127.2894122,36.60694927
773,세종드림공인중개사사무소-부동산업,50,0,127.2590393,36.47727798
774,세종시내판공인중개사사무소-부동산업,50,0,127.3252735,36.55790651
775,짱부동산-부동산업,50,0,127.25662,36.49223222
776,드림부동산-부동산업,50,0,127.2611978,36.51086182
777,세종소망공인중개사사무소-부동산업,50,0,127.2030316,36.67941771
778,세종허재삼공인중개사-부동산업,50,0,127.2893151,36.6029203
779,대일공인중개사사무소-부동산업,50,0,127.1971357,36.68045953
780,장군봉부동산컨설팅-부동산업,50,0,127.191679,36.53660926
781,세종탑부동산-부동산업,50,0,127.2590393,36.47727798
782,행복한공인중개사사무소-부동산업,50,0,127.1975162,36.68045308
783,연동부동산-부동산업,50,0,127.3254526,36.55785346
784,황제공인중개사사무소-부동산업,50,0,127.2197568,36.49971129
785,매경부동산-부동산업,50,0,127.2971939,36.48089738
786,세종해냄공인중개사사무소-부동산업,50,0,127.2606235,36.48084763
787,문예식부동산컨설팅중개법인-부동산업,50,0,127.3033809,36.6036432
788,낙원부동산-부동산업,50,0,127.2594825,36.48348114
789,노블비즈니스타운공인중개사사무소-부동산업,50,0,127.25662,36.49223222
790,만사형통부동산-부동산업,50,0,127.2588488,36.48439645
791,예스부동산-부동산업,50,0,127.2590119,36.48484807
792,더샵부동산-부동산업,50,0,127.2337497,36.51606894
793,크로바-부동산업,50,0,127.256488,36.48851837
794,세종서울부동산-부동산업,50,0,127.2439585,36.50186781
795,토박이유진컨설팅-부동산업,50,0,127.3001227,36.59930733
796,미미공인중개사사무소-부동산업,50,0,127.2611978,36.51086182
797,다복부동산-부동산업,50,0,127.2560722,36.51448891
798,세종명당부동산-부동산업,50,0,127.2560722,36.51448891
799,남세종공인중개사사무소-부동산업,50,0,127.2834718,36.44645201
800,참착한부동산-부동산업,50,0,127.2600121,36.4817721
801,런던부동산중개사무소-부동산업,50,0,127.2606235,36.48084763
802,푸르지오시티1차공인중개사사무소-부동산업,50,0,127.2639286,36.49599957
803,스타힐-부동산업,50,0,127.2347488,36.50530582
804,강남공인중개사사무소-부동산업,50,0,127.256488,36.48851837
805,세종시티공인중개사사무소-부동산업,50,0,127.2343829,36.50845773
806,세계부동산-부동산업,50,0,127.24384,36.51863871
807,세종스타부동산-부동산업,50,0,127.2571609,36.48234018
808,세종하늘부동산-부동산업,50,0,127.2592335,36.48384008
809,세종웰컴공인중개사사무소-부동산업,50,0,127.2576833,36.48606548
810,소정부동산-부동산업,50,0,127.1571752,36.71997966
811,자림공인중개사사무소-부동산업,50,0,127.2622428,36.50779514
812,세종롯데공인중개사무소-부동산업,50,0,127.2594825,36.48348114
813,시티공인중개사사무소-부동산업,50,0,127.2398446,36.51846011
814,영재부동산-부동산업,50,0,127.3688894,36.52849524
815,일조공인중개사-부동산업,50,0,127.2803848,36.46062778
816,미소부동산-부동산업,50,0,127.2586084,36.51429742
817,애플공인중개사사무소-부동산업,50,0,127.289886,36.59184787
818,14번지부동산-부동산업,50,0,127.2205189,36.49940985
819,세종어반공인중개사사무소-부동산업,50,0,127.2570773,36.48991893
820,e편한세상단지내공인중개사사무소-부동산업,50,0,127.2850543,36.5934682
821,황용부동산-부동산업,50,0,127.3304102,36.47906963
822,강남공인중계사사무소-부동산업,50,0,127.2806913,36.46246813
823,세종행운공인중개사사무소-부동산업,50,0,127.2594825,36.48348114
824,스마일공인중개사사무소-부동산업,50,0,127.2464278,36.51314865
825,세종힐링공인중개사사무소-부동산업,50,0,127.2149323,36.49329902
826,세종행운공인중개사사무소-부동산업,50,0,127.2816672,36.46795346
827,e세종롯데공인중개사사무소-부동산업,50,0,127.2406285,36.5056498
828,금강공인중개사사무소-부동산업,50,0,127.2203507,36.49948085
829,상희공인중개사-부동산업,50,0,127.2923538,36.60309158
830,고운드림부동산-부동산업,50,0,127.234781,36.51904957
831,세종코리아공인중개사사무소-부동산업,50,0,127.2614199,36.47924839
832,세종포스코롯데공인중개사사무소-부동산업,50,0,127.2507065,36.48853628
833,세종넘버원부동산-부동산업,50,0,127.2814882,36.46679882
834,세종미소공인중개사사무소-부동산업,50,0,127.2565951,36.51585301
835,바른공인중개사사무소-부동산업,50,0,127.2484326,36.50555502
836,윤경리부동산-부동산업,50,0,127.3488862,36.53558846
837,신행정부동산-부동산업,50,0,127.2660301,36.65387725
838,현대공인중개사사무소-부동산업,50,0,127.2636801,36.51280578
839,르네상스공인중개사무소-부동산업,50,0,127.2591162,36.48561476
840,스마트부동산-부동산업,50,0,127.2614137,36.51633355
841,천마공인중개사사무소-부동산업,50,0,127.2888389,36.47560276
842,세종어반공인중개사사무소-부동산업,50,0,127.2572148,36.48955029
843,새뜸마을공인중개사사무소-부동산업,50,0,127.2472887,36.48649603
844,대한공인중개사사무소-부동산업,50,0,127.2563693,36.51144465
845,티에이치부동산중개법인-부동산업,50,0,127.2634551,36.51063245
846,세종청담공인중개사사무소-부동산업,50,0,127.2507852,36.48500399
847,황제부동산-부동산업,50,0,127.2210331,36.4993321
848,제이디개발-부동산업,50,0,127.243009,36.51225283
849,오렌지공인중개사사무소-부동산업,50,0,127.2502313,36.48688406
850,세종으뜸공인중개사사무소-부동산업,50,0,127.2803848,36.46062778
851,달빛공인중개사사무소-부동산업,50,0,127.2530833,36.50486326
852,세종로부동산-부동산업,50,0,127.3444814,36.49774906
853,세종다성공인중개사사무소-부동산업,50,0,127.2580341,36.48556298
854,세종하늘부동산-부동산업,50,0,127.2576833,36.48606548
855,세종부동산개발컨설팅-부동산업,50,0,127.2614199,36.47924839
856,더세종공인중개사사무소-부동산업,50,0,127.2586084,36.51429742
857,세종스카이공인중개사사무소-부동산업,50,0,127.2398446,36.51846011
858,세종시부동산공인중개사사무소-부동산업,50,0,127.2537315,36.48034511
859,세종e편한공감공인중개사사무소-부동산업,50,0,127.2874046,36.61619265
860,메이저공인중개사사무소-부동산업,50,0,127.2611978,36.51086182
861,세종해성공인중개사사무소-부동산업,50,0,127.2530833,36.50486326
862,금백공인중개사사무소-부동산업,50,0,127.2611978,36.51086182
863,애플공인중개사사무소-부동산업,50,0,127.260071,36.48143901
864,우리세종공인중개사사무소-부동산업,50,0,127.3022431,36.60214955
865,토지뱅크공인중개사사무소-부동산업,50,0,127.2854911,36.56668688
866,세종나라공인중개사사무소-부동산업,50,0,127.2937093,36.59294302
867,세종웅진공인중개사사무소-부동산업,50,0,127.2563693,36.51144465
868,1뉴스타공인중개사사무소-부동산업,50,0,127.2599232,36.48290709
869,첫마을114공인중개사사무소-부동산업,50,0,127.2614199,36.47924839
870,모범공인중개사사무소-부동산업,50,0,127.2903425,36.60301654
871,세종금강공인중개사사무소-부동산업,50,0,127.258946,36.51284856
872,커피공인중개사사무소-부동산업,50,0,127.293791,36.592565
873,신조은터공인중개사사무소-부동산업,50,0,127.2808033,36.4612161
874,세종초이스공인중개사사무소-부동산업,50,0,127.2587842,36.51342434
875,세종한림시티공인중개사사무소-부동산업,50,0,127.2664883,36.51099361
876,에이스공인중개사사무소-부동산업,50,0,127.2815615,36.46731296
877,세종일등공인중개사사무소-부동산업,50,0,127.2596973,36.48318507
878,한국신화공인중개사사무소-부동산업,50,0,127.2664883,36.51099361
879,세종엘리트탑공인중개사-부동산업,50,0,127.2960514,36.48506332
880,국제공인중개사사무소-부동산업,50,0,127.260071,36.48143901
881,ABC공인중개사사무소-부동산업,50,0,127.2596973,36.48318507
882,세종삼성공인중개사사무소-부동산업,50,0,127.260071,36.48143901
883,효자공인중개사사무소-부동산업,50,0,127.228068,36.51481567
884,오렌지공인중개사사무소-부동산업,50,0,127.2608395,36.48043441
885,에덴2공인중개사무소-부동산업,50,0,127.2608395,36.48043441
886,금나라공인중개사사무소-부동산업,50,0,127.2530833,36.50486326
887,세종주황공인중개사사무소-부동산업,50,0,127.2622669,36.50760603
888,해오름공인중개사사무소-부동산업,50,0,127.2406285,36.5056498
889,부자공인중개사사무소II-부동산업,50,0,127.2897603,36.47857327
890,세종현대부동산중개사무소-부동산업,50,0,127.2818334,36.46565634
891,소나무부동산중개사무소-부동산업,50,0,127.2584144,36.48313204
892,주황푸르지오공인중개사사무소-부동산업,50,0,127.2483731,36.51287254
893,골드공인중개사사무소-부동산업,50,0,127.3028111,36.60237818
894,이지더원공인중개사사무소-부동산업,50,0,127.2372689,36.50672785
895,세종런닝공인중개사사무소-부동산업,50,0,127.258946,36.51284856
896,세종캠퍼스공인중개사사무소-부동산업,50,0,127.2909791,36.61406009
897,복희공인중개사사무소-부동산업,50,0,127.2372689,36.50672785
898,열매공인중개사사무소-부동산업,50,0,127.2976448,36.60510554
899,한림시티공인중개사사무소-부동산업,50,0,127.2664883,36.51099361
900,세종시해냄공인중개사사무소-부동산업,50,0,127.2614199,36.47924839
901,세종새롬공인중개사사무소-부동산업,50,0,127.259471,36.4835081
902,세종신도시부동산컨설팅-부동산업,50,0,127.277081,36.54482685
903,세종시114공인중개사사무소-부동산업,50,0,127.2816672,36.46795346
904,다복공인중개사-부동산업,50,0,127.2948127,36.59204835
905,세종시귀빈공인중개사사무소-부동산업,50,0,127.259471,36.4835081
906,세종GS공인중개사사무소-부동산업,50,0,127.2372689,36.50672785
907,골드클래스공인중개사사무소-부동산업,50,0,127.2374552,36.51847189
908,중흥공인중개사-부동산업,50,0,127.2494765,36.51190617
909,동서남북공인중개사사무소-부동산업,50,0,127.2217407,36.50001263
910,부자공인중개사사무소-부동산업,50,0,127.2897603,36.47857327
911,세종하나공인중개사사무소-부동산업,50,0,127.2908988,36.59108787
912,새롬금강공인중개사사무소-부동산업,50,0,127.259471,36.4835081
913,세종시래미안공인중개사사무소-부동산업,50,0,127.2594188,36.51126535
914,빛나공인중개사사무소-부동산업,50,0,127.2398446,36.51846011
915,소암부동산연구소-부동산업,50,0,127.2081119,36.49885051
916,황금공인중개사사무소-부동산업,50,0,127.2163708,36.50008563
917,세종복돼지공인중개사-부동산업,50,0,127.2960514,36.48506332
918,소나무2공인중개사사무소-부동산업,50,0,127.2490499,36.47515174
919,갑을공인중개사사무소-부동산업,50,0,127.2596973,36.48318507
920,재테크공인중개사사무소-부동산업,50,0,127.260071,36.48143901
921,세종온누리공인중개사사무소-부동산업,50,0,127.259471,36.4835081
922,세종백억공인중개사사무소-부동산업,50,0,127.2668114,36.51343789
923,세종투데이공인중개사사무소-부동산업,50,0,127.2898212,36.60013859
924,세종정보공인중개사사무소-부동산업,50,0,127.2523942,36.48364422
925,대원부동산중개법인-부동산업,50,0,127.262186,36.49496142
926,한윤희공인중개사사무소-부동산업,50,0,127.289886,36.59184787
927,세종엘시티공인중개사사무소-부동산업,50,0,127.3044328,36.48132732
928,부동산갑부공인중개사사무소-부동산업,50,0,127.258946,36.51284856
929,강동공인중개사사무소-부동산업,50,0,127.2518973,36.51210162
930,세종미르공인중개사사무소-부동산업,50,0,127.2590182,36.48418121
931,길사랑공인중개사사무소-부동산업,50,0,127.2617592,36.51757937
932,베스트세종공인중개사사무소-부동산업,50,0,127.228068,36.51481567
933,뉴명동공인중개사사무소-부동산업,50,0,127.2971651,36.60376892
934,세종엠코공인중개사사무소-부동산업,50,0,127.2453131,36.50147084
935,신행복공인중개사-부동산업,50,0,127.2807639,36.46307239
936,세종사랑공인중개사사무소-부동산업,50,0,127.2637945,36.49600776
937,월드공인중개사사무소-부동산업,50,0,127.2624501,36.5083011
938,스타푸르지오공인중개사-부동산업,50,0,127.2483731,36.51287254
939,세종365공인중개사사무소-부동산업,50,0,127.2498513,36.50314869
940,지앤지공인중개사무소-부동산업,50,0,127.288491,36.58798238
941,영토공인중개사사무소-부동산업,50,0,127.2431775,36.5110012
942,세종우리공인중개사-부동산업,50,0,127.3044328,36.48132732
943,잘이음부동산중개-부동산업,50,0,127.2620271,36.47993707
944,세종현대공인중개사사무소-부동산업,50,0,127.2837195,36.61574699
945,예다음공인중개사사무소-부동산업,50,0,127.2516834,36.51112696
946,잡아라공인중개사-부동산업,50,0,127.3651608,36.531098
947,신황제공인중개사사무소-부동산업,50,0,127.216258,36.50020205
948,다온부동산-부동산업,50,0,127.2600488,36.48260145
949,세종부동산가이드-부동산업,50,0,127.228616,36.51022301
950,호반베르디움공인중개사-부동산업,50,0,127.2445695,36.50216908
951,세종시e편한세상공인중개사-부동산업,50,0,127.2886703,36.59157927
952,세종시공인중개사사무소-부동산업,50,0,127.3683815,36.52778959
953,윤경리부동산공인중개사사무소-부동산업,50,0,127.3488862,36.53558846
954,티에이치부동산중개법인-부동산업,50,0,127.2611978,36.51086182
955,한양랜드공인중개사사무소-부동산업,50,0,127.2478376,36.50936343
956,세종센트레빌단지내공인중개사사무소-부동산업,50,0,127.2429483,36.50816993
957,세종황금공인중개사사무소-부동산업,50,0,127.2429483,36.50816993
958,세종나릿재공인중개사사무소-부동산업,50,0,127.2576833,36.48606548
959,세종골드공인중개사사무소-부동산업,50,0,127.2605003,36.48207253
960,세종참조은공인중개사사무소-부동산업,50,0,127.259471,36.4835081
961,짱부동산중개-부동산업,50,0,127.2568221,36.49210731
962,세종태양공인중개사사무소-부동산업,50,0,127.2563693,36.51144465
963,해피존공인중개사사무소-부동산업,50,0,127.2509391,36.51189734
964,스카이부동산컨설팅-부동산업,50,0,127.2806763,36.46289162
965,세종시공인중개사사무소-부동산업,50,0,127.295727,36.59351371
966,대보공인중개사-부동산업,50,0,127.2596973,36.48318507
967,굿모닝공인중개사사무소-부동산업,50,0,127.2187443,36.49938022
968,귀빈공인중개사사무소-부동산업,50,0,127.260071,36.48143901
969,부동산임대-부동산업,50,0,127.2932428,36.60242997
970,세종나래공인중개사사무소-부동산업,50,0,127.2664883,36.51099361
971,부동산임대업-부동산업,50,0,127.2290871,36.48860584
972,부동산-부동산업,50,0,127.2895166,36.61872863
973,세종e편한세상공인중개사사무소-부동산업,50,0,127.2903807,36.60128645
974,세종올리브공인중개사사무소-부동산업,50,0,127.2546661,36.47481744
975,만능공인중개사사무소-부동산업,50,0,127.2587842,36.51342434
976,세종레이버부동산-부동산업,50,0,127.2453131,36.50147084
977,만년공인중개사사무소-부동산업,50,0,127.2614137,36.51633355
978,시청보람공인중개사사무소-부동산업,50,0,127.2897603,36.47857327
979,부동산-부동산업,50,0,127.2973018,36.58746689
980,세종오케이공인중개사사무소-부동산업,50,0,127.3024765,36.60229511
981,하나부동산중개법인-부동산업,50,0,127.2900202,36.47822334
982,현대삼성공인중개사사무소-부동산업,50,0,127.2546661,36.47481744
983,프라임공인중개사무소-부동산업,50,0,127.2816672,36.46795346
984,해뜨는공인중개사사무소-부동산업,50,0,127.2897603,36.47857327
985,유정공인중개사사무소-부동산업,50,0,127.2510968,36.48856577
986,세종타운공인중개사사무소-부동산업,50,0,127.2587842,36.51342434
987,다복부동산중개법인-부동산업,50,0,127.2568221,36.49210731
988,태양부동산-부동산업,50,0,127.2665676,36.65381748
989,한양공인중개사사무소-부동산업,50,0,127.2897603,36.47857327
990,세종정다운공인중개사사무소-부동산업,50,0,127.2572479,36.50828685
991,진달래공인중개사사무소-부동산업,50,0,127.2614137,36.51633355
992,일번지공인중개사사무소-부동산업,50,0,127.28885,36.47682849
993,신태양공인중개사사무소-부동산업,50,0,127.2960514,36.48506332
994,세종마라톤공인중개사사무소-부동산업,50,0,127.2561634,36.48978707
995,햇님공인중개사사무소-부동산업,50,0,127.2558403,36.49206514
996,세종부동산공인중개사사무소-부동산업,50,0,127.2559539,36.51284796
997,세종조은공인중개사사무소-부동산업,50,0,127.28885,36.47682849
998,세종짱공인중개사사무소-부동산업,50,0,127.2530833,36.50486326
999,세종탑부동산-부동산업,50,0,127.2558403,36.49206514
1000,에스에이치부동산개발-부동산업,50,0,127.2892712,36.47836308
1001,뉴캐슬2공인중개사사무소-부동산업,50,0,127.2561634,36.48978707
1002,광장공인중개사사무소-부동산업,50,0,127.2489727,36.49471676
1003,대지공인중개사사무소-부동산업,50,0,127.2006622,36.50470379
1004,세종부자공인중개사사무소-부동산업,50,0,127.2574567,36.48642456
1005,신행정부동산-부동산업,50,0,127.2076868,36.67934063
1006,세종광장공인중개사사무소-부동산업,50,0,127.2489727,36.49471676
1007,청송공인중개사사무소-부동산업,50,0,127.2476231,36.66620791
1008,온누리부동산-부동산업,50,0,127.1894719,36.53942408
1009,세종신나라공인중개사사무소-부동산업,50,0,127.2964665,36.5957711
1010,원주민송학랜드공인중개사사무소-부동산업,50,0,127.1918153,36.53745732
1011,세종최고공인중개사사무소-부동산업,50,0,127.2372689,36.50672785
1012,세종프로공인중개사사무소-부동산업,50,0,127.2524967,36.48459115
1013,죽림부동산컨설팅-부동산업,50,0,127.296944,36.59487271
1014,최신성공인중개사사무소-부동산업,50,0,127.2217849,36.50117549
1015,진주부동산공인중개사사무소-부동산업,50,0,127.2498825,36.48370957
1016,세종황금토공인중개사사무소-부동산업,50,0,127.2372689,36.50672785
1017,세종박사1공인중개사사무소-부동산업,50,0,127.2584589,36.5159277
1018,세종열매공인중개사사무소-부동산업,50,0,127.2510968,36.48856577
1019,하랑부동산중개법인-부동산업,50,0,127.2568221,36.49210731
1020,리버시티공인중개사사무소-부동산업,50,0,127.256488,36.48851837
1021,문화공인중개사사무소-부동산업,50,0,127.2599232,36.48290709
1022,대박공인중개사사무소-부동산업,50,0,127.3338584,36.48039571
1023,새롬뜰공인중개사무소-부동산업,50,0,127.2459205,36.48602777
1024,세종소담공인중개사사무소-부동산업,50,0,127.2960514,36.48506332
1025,세종우림공인중개사사무소-부동산업,50,0,127.2555331,36.48917031
1026,소담공인중개사사무소-부동산업,50,0,127.3005811,36.48149407
1027,세종메이저타운공인중개사사무소-부동산업,50,0,127.2507852,36.48500399
1028,도도공인중개사사무소-부동산업,50,0,127.2962422,36.47753922
1029,한마음공인중개사사무소-부동산업,50,0,127.2928906,36.60550099
1030,세종시리더스공인중개사사무소-부동산업,50,0,127.2572148,36.48955029
1031,금탑공인중개사사무소-부동산업,50,0,127.2816672,36.46795346
1032,세종지평공인중개사사무소-부동산업,50,0,127.2649144,36.49561813
1033,태양광고기획-사무실(office),50,0,127.278571,36.54450345
1034,나인광고공사-사무실(office),50,0,127.2821408,36.59319553
1035,도시광고-사무실(office),50,0,127.3047253,36.60287377
1036,세계산업-사무실(office),50,0,127.3003665,36.59217236
1037,다짐하우징-사무실(office),50,0,127.250887,36.48004779
1038,(주)이스토리-사무실(office),50,0,127.2418879,36.51261614
1039,주식회사 지원건설디자인-사무실(office),50,0,127.2905426,36.60555358
1040,천일사-사무실(office),50,0,127.2982923,36.59891908
1041,근영나염-사무실(office),50,0,127.2952215,36.5973437
1042,도원종합광고사-사무실(office),50,0,127.2917462,36.58809402
1043,안전사-사무실(office),50,0,127.2990459,36.59777915
1044,문화광고사-사무실(office),50,0,127.293832,36.60900535
1045,6238광고사-사무실(office),50,0,127.2997888,36.59658453
1046,충무로광고 세종지사-사무실(office),50,0,127.3655774,36.52853173
1047,(주)행복한-사무실(office),50,0,127.2815343,36.46503694
1048,마노광고기획-사무실(office),50,0,127.2234475,36.50153555
1049,주식회사 카프-사무실(office),50,0,127.2580293,36.48557135
1050,아라리오 디자인-사무실(office),50,0,127.360186,36.53316832
1051,KH디자인-사무실(office),50,0,127.2898981,36.59966152
1052,Art Design 종합광고-사무실(office),50,0,127.1995439,36.6797082
1053,세종모든-사무실(office),50,0,127.2670876,36.49545315
1054,백두-사무실(office),50,0,127.2587799,36.48452041
1055,디자인마을-사무실(office),50,0,127.2054786,36.49764962
1056,대박종합광고기획-사무실(office),50,0,127.2038531,36.49568536
1057,하얀콩건축-사무실(office),50,0,127.2961504,36.45324177
1058,세종종합광고-사무실(office),50,0,127.28784,36.4778052
1059,주식회사 퍼블릭아이디-사무실(office),50,0,127.2892673,36.47836443
1060,다함협동조합-사무실(office),50,0,127.3668529,36.52814212
1061,예성광고-사무실(office),50,0,127.262445,36.50830734
1062,도서출판 성원인쇄기획-사무실(office),50,0,127.302308,36.59962555
1063,욱일광고기획-사무실(office),50,0,127.3024711,36.59746682
1064,(주)대하-사무실(office),50,0,127.3307691,36.55146599
1065,우일광고-사무실(office),50,0,127.2792418,36.55967026
1066,에덴광고사-사무실(office),50,0,127.2985598,36.59162161
1067,(주)블루컴-사무실(office),50,0,127.2669612,36.45405066
1068,(주)하나종합기획-사무실(office),50,0,127.2891849,36.59970651
1069,주식회사 알텍코리아-사무실(office),50,0,127.36502,36.54334505
1070,제일디자인 세종점-사무실(office),50,0,127.2489137,36.51138234
1071,신세종광고-사무실(office),50,0,127.2568215,36.49211248
1072,대성광고산업-사무실(office),50,0,127.2803665,36.46114144
1073,가나애드-사무실(office),50,0,127.283797,36.56133285
1074,강남기획-사무실(office),50,0,127.2981251,36.5866994
1075,두영광고-사무실(office),50,0,127.283797,36.56133285
1076,세종광고-사무실(office),50,0,127.2845517,36.4555447
1077,(유)다함-사무실(office),50,0,127.2810225,36.46378652
1078,(주)라이프스케이프솔루션-사무실(office),50,0,127.3056151,36.48222651
1079,둘204기획-사무실(office),50,0,127.2906099,36.59534558
1080,세종디자인뱅크-사무실(office),50,0,127.2593273,36.48085052
1081,금강기획-사무실(office),50,0,127.3678065,36.52744899
1082,프라임산업 주식회사-사무실(office),50,0,127.3695382,36.54846253
1083,부강상사-사무실(office),50,0,127.3668529,36.52814212
1084,즐거운디자인세상-사무실(office),50,0,127.2833431,36.56351902
1085,가온애드-사무실(office),50,0,127.2621649,36.49509738
1086,미디자인광고시스템-사무실(office),50,0,127.2624337,36.49560964
1087,(주)아트월드-사무실(office),50,0,127.2649076,36.49562724
1088,에코디자인-사무실(office),50,0,127.2741188,36.55499403
1089,(주)다온산업개발-사무실(office),50,0,127.2586021,36.51430543
1090,유니크커뮤니케이션-사무실(office),50,0,127.2881005,36.61977361
1091,(주)토브-사무실(office),50,0,127.1983693,36.51082727
1092,세종도시교통공사-사무실(office),50,0,127.2566165,36.50190569
1093,동호기획-사무실(office),50,0,127.2820685,36.55210047
1094,윤기획-사무실(office),50,0,127.2029263,36.50522577
1095,한결엠세종사회적협동조합-사무실(office),50,0,127.2715519,36.50419419
1096,규장각인쇄-사무실(office),50,0,127.2433783,36.51222129
1097,장군기획-사무실(office),50,0,127.2029263,36.50522577
1098,쵸이스씨앤피-사무실(office),50,0,127.2715519,36.50419419
1099,주식회사 다원기획-사무실(office),50,0,127.2260659,36.50298589
1100,다함협동조합-사무실(office),50,0,127.3668529,36.52814212
1101,중앙하이원-사무실(office),50,0,127.3030654,36.59992344
1102,과천인쇄(기획)-사무실(office),50,0,127.2908172,36.57669378
1103,(주)가현기획-사무실(office),50,0,127.2158276,36.49200948
1104,현기획-사무실(office),50,0,127.2826112,36.56213813
1105,디자인넥서스-사무실(office),50,0,127.2152162,36.4932677
1106,푸른기획-사무실(office),50,0,127.2639257,36.49600412
1107,에이치에스디아이-사무실(office),50,0,127.259698,36.48318687
1108,제로텍-사무실(office),50,0,127.3669392,36.53513674
1109,한빛문화사-사무실(office),50,0,127.2232188,36.50313796
1110,제일기획-사무실(office),50,0,127.2029263,36.50522577
1111,(주)휴먼에듀피아-사무실(office),50,0,127.3003333,36.59856423
1112,유공자회인쇄-사무실(office),50,0,127.210654,36.49344138
1113,(주)굿시스템-사무실(office),50,0,127.2939891,36.60520063
1114,미래기획-사무실(office),50,0,127.2823693,36.55179382
1115,(주)현대아트컴-사무실(office),50,0,127.3016362,36.60153839
1116,두리-사무실(office),50,0,127.259698,36.48318687
1117,세종아이콘(주)-사무실(office),50,0,127.2881005,36.61977361
1118,경성문화사-사무실(office),50,0,127.2706382,36.504588
1119,성문기획-사무실(office),50,0,127.2151521,36.50139291
1120,세종패키지-사무실(office),50,0,127.3333008,36.55850959
1121,천호기획인쇄-사무실(office),50,0,127.2639032,36.56827329
1122,디에스피 주식회사-사무실(office),50,0,127.3726046,36.52533812
1123,현대정보기획-사무실(office),50,0,127.2996062,36.60340013
1124,주식회사 삼일기획-사무실(office),50,0,127.2638179,36.51864793
1125,해송그래픽스-사무실(office),50,0,127.250887,36.48004779
1126,주식회사 성원기획-사무실(office),50,0,127.2938701,36.60589696
1127,청운카피랜드-사무실(office),50,0,127.2844683,36.57049003
1128,일지사-사무실(office),50,0,127.2820685,36.55210047
1129,신진기획-사무실(office),50,0,127.2820685,36.55210047
1130,한라기획주식회사-사무실(office),50,0,127.2823693,36.55179382
1131,동화사-사무실(office),50,0,127.2985182,36.59816787
1132,세종인쇄-사무실(office),50,0,127.2741188,36.55499403
1133,(주)계문사 세종지점-사무실(office),50,0,127.2245734,36.50302809
1134,"한국장애경제인 세종,충남 인쇄사업단-사무실(office)",50,0,127.2908172,36.57669378
1135,드림CCP-사무실(office),50,0,127.2683884,36.49882469
1136,공간 기획-사무실(office),50,0,127.2628709,36.50749194
1137,세일기획 주식회사-사무실(office),50,0,127.2787108,36.55918687
1138,일지기획-사무실(office),50,0,127.2820685,36.55210047
1139,창성인쇄사-사무실(office),50,0,127.2792614,36.45834404
1140,바림 씨엔피-사무실(office),50,0,127.2715519,36.50419419
1141,나누리기획-사무실(office),50,0,127.2622363,36.50779991
1142,(주)유진문화사-사무실(office),50,0,127.3338531,36.48040008
1143,문원기획-사무실(office),50,0,127.234397,36.50504445
1144,(사)성원근로장애인협회 드림사업단-사무실(office),50,0,127.210654,36.49344138
1145,한별인쇄-사무실(office),50,0,127.2741188,36.55499403
1146,부강상사-사무실(office),50,0,127.3668529,36.52814212
1147,디자인시티-사무실(office),50,0,127.2904919,36.47757916
1148,주식회사 퍼블릭아이디-사무실(office),50,0,127.2892673,36.47836443
1149,제일디자인-사무실(office),50,0,127.2489137,36.51138234
1150,한솔인쇄소-사무실(office),50,0,127.2046674,36.6794043
1151,신성인쇄광고사-사무실(office),50,0,127.2814816,36.46680324
1152,서광인쇄사-사무실(office),50,0,127.297576,36.60525796
1153,정문사인쇄사-사무실(office),50,0,127.2029216,36.67945567
1154,도서출판 성원인쇄기획-사무실(office),50,0,127.302308,36.59962555
1155,현대인쇄사-사무실(office),50,0,127.3023981,36.59984809
1156,합동인쇄사-사무실(office),50,0,127.2931099,36.59358214
1157,금강인쇄사-사무실(office),50,0,127.3177317,36.44555704
1158,광일인쇄사-사무실(office),50,0,127.3007827,36.60124119
1159,북세종인쇄사-사무실(office),50,0,127.2990314,36.5915924
1160,다솜기획-사무실(office),50,0,127.2823693,36.55179382
1161,동명기획-사무실(office),50,0,127.2360585,36.51914766
1162,주식회사 삼인-사무실(office),50,0,127.3004444,36.59938506
1163,(사)대한정신장애인가족협회 세종인쇄정보-사무실(office),50,0,127.2820685,36.55210047
1164,(주)이노브레인-사무실(office),50,0,127.2903385,36.60301728
1165,본디자인-사무실(office),50,0,127.2885207,36.4780831
1166,세종애드모아-사무실(office),50,0,127.2221961,36.49212269
1167,비비종합전산-사무실(office),50,0,127.2699741,36.42918031
1168,한국칼라-사무실(office),50,0,127.2983532,36.59197862
1169,세종인쇄기획사-사무실(office),50,0,127.2997908,36.5968363
1170,경성문화사 1호점-사무실(office),50,0,127.2687842,36.50599456
1171,다원문화사-사무실(office),50,0,127.2158745,36.49115077
1172,문중기획-사무실(office),50,0,127.2132285,36.50216217
1173,투데이기획-사무실(office),50,0,127.2939509,36.60543204
1174,에프엠인터내셔널-사무실(office),50,0,127.2896084,36.595432
1175,비스토리-사무실(office),50,0,127.210654,36.49344138
1176,한솔기획-사무실(office),50,0,127.2967516,36.58504311
1177,세종디자인기획인쇄-사무실(office),50,0,127.2699741,36.42918031
1178,삼성기획-사무실(office),50,0,127.2699741,36.42918031
1179,지오디자인-사무실(office),50,0,127.3003333,36.59856423
1180,중앙인쇄기획사-사무실(office),50,0,127.3030654,36.59992344
1181,명현디자인기획-사무실(office),50,0,127.2936457,36.60721993
1182,광고시대그래픽-사무실(office),50,0,127.2909065,36.59747182
1183,주식회사 아홉거리 미디어 윌-사무실(office),50,0,127.2921845,36.6141822
1184,한밭인쇄사-사무실(office),50,0,127.297474,36.60355461
1185,열림기획(주)-사무실(office),50,0,127.2232188,36.50313796
1186,주식회사 에스엠이앤피-사무실(office),50,0,127.2741188,36.55499403
1187,한라디앤피-사무실(office),50,0,127.2968681,36.60359775
1188,주식회사 나모기획 세종지사-사무실(office),50,0,127.2290841,36.48861272
1189,(주)케이에스센세이션-사무실(office),50,0,127.2687842,36.50599456
1190,천일사-사무실(office),50,0,127.2982923,36.59891908
1191,칸디자인뱅크-사무실(office),50,0,127.3307691,36.55146599
1192,주식회사 초이스디자인-사무실(office),50,0,127.2715519,36.50419419
1193,나라인쇄-사무실(office),50,0,127.2937335,36.60417279
1194,세종인쇄기획(주)-사무실(office),50,0,127.2885207,36.4780831
1195,캔커뮤니케이션-사무실(office),50,0,127.2150735,36.50163276
1196,디자인핏-사무실(office),50,0,127.2049936,36.49706488
1197,주식회사 대왕-사무실(office),50,0,127.2568215,36.49211248
1198,성심기획-사무실(office),50,0,127.2892673,36.47836443
1199,진애드세종-사무실(office),50,0,127.2897534,36.4785762
1200,동광문화사-사무실(office),50,0,127.3266522,36.48116553
1201,해냄기획-사무실(office),50,0,127.2830622,36.46692576
1202,대성-사무실(office),50,0,127.2639032,36.56827329
1203,비비전산세종-사무실(office),50,0,127.2696565,36.42901558
1204,디자인시티-사무실(office),50,0,127.2192227,36.69531078
1205,(주)경성문화사-사무실(office),50,0,127.2625845,36.5069772
1206,금강기획-사무실(office),50,0,127.2157792,36.49290324
1207,(주)아르빛-사무실(office),50,0,127.2844683,36.57049003
1208,명성기획-사무실(office),50,0,127.2029263,36.50522577
1209,만종출판-사무실(office),50,0,127.2741188,36.55499403
1210,세창문화사(세종)-사무실(office),50,0,127.2873278,36.47851105
1211,정성기획-사무실(office),50,0,127.2670876,36.49545315
1212,경성문화사 2호점-사무실(office),50,0,127.3045433,36.49584229
1213,(사)자기고용지원연구소 에코디자인-사무실(office),50,0,127.2741188,36.55499403
1214,나은문화사-사무실(office),50,0,127.3630603,36.53125079
1215,도원종합광고사-사무실(office),50,0,127.2917462,36.58809402
1216,신화커뮤니케이션-사무실(office),50,0,127.2830622,36.46692576
1217,거목정보산업(주)-사무실(office),50,0,127.2586021,36.51430543
1218,대교기획-사무실(office),50,0,127.2132285,36.50216217
1219,이비유커뮤니케이션-사무실(office),50,0,127.2881005,36.61977361
1220,라온기획-사무실(office),50,0,127.2029263,36.50522577
1221,어진기획-사무실(office),50,0,127.2357685,36.5359722
1222,일신인쇄사-사무실(office),50,0,127.3010917,36.59402922
1223,(주)세종제본-사무실(office),50,0,127.262445,36.50830734
1224,문화광고사-사무실(office),50,0,127.293832,36.60900535
1225,동양기획인쇄세종-사무실(office),50,0,127.2823693,36.55179382
1226,아름디자인-사무실(office),50,0,127.2931099,36.59358214
1227,파랑기획-사무실(office),50,0,127.2243565,36.50397795
1228,주식회사 더성광-사무실(office),50,0,127.2586021,36.51430543
1229,(주)서린기획-사무실(office),50,0,127.2089822,36.49483138
1230,경영기획-사무실(office),50,0,127.2029263,36.50522577
1231,고려문화사-사무실(office),50,0,127.3443377,36.47999892
1232,(주)휘문인쇄-사무실(office),50,0,127.2236112,36.5026269
1233,봄비와씨앗 데일리프린팅-사무실(office),50,0,127.234397,36.50504445
1234,(주)동명기획-사무실(office),50,0,127.2360585,36.51914766
1235,주현기획-사무실(office),50,0,127.2074194,36.49682134
1236,가온기획-사무실(office),50,0,127.2236112,36.5026269
1237,M.D.Publishing-사무실(office),50,0,127.2519512,36.47614127
1238,정석교육-사무실(office),50,0,127.2766288,36.44978606
1239,한결엠세종사회적협동조합-사무실(office),50,0,127.2715519,36.50419419
1240,딩동세종협동조합-사무실(office),50,0,127.2885207,36.4780831
1241,동호기획-사무실(office),50,0,127.2820685,36.55210047
1242,문화공작소 협동조합-사무실(office),50,0,127.2624337,36.49560964
1243,울트라러닝(ULTRALEARNING)-사무실(office),50,0,127.2301233,36.51457618
1244,주식회사 명디자인플랜-사무실(office),50,0,127.2621649,36.49509738
1245,주식회사 위스콘신이케이-사무실(office),50,0,127.2558367,36.49207062
1246,무빈다방-사무실(office),50,0,127.255617,36.47453987
1247,굿브레인-사무실(office),50,0,127.2572301,36.4954265
1248,도서출판 인생-사무실(office),50,0,127.258769,36.49108816
1249,(주)디자인공공-사무실(office),50,0,127.2591144,36.48561856
1250,호오-사무실(office),50,0,127.2997042,36.60221912
1251,모자이크 미션(MOSAIC MISSION)-사무실(office),50,0,127.3005841,36.48149664
1252,도아협동조합-사무실(office),50,0,127.2624337,36.49560964
1253,리연-사무실(office),50,0,127.2664946,36.51104391
1254,디자인 혜윰-사무실(office),50,0,127.3056151,36.48222651
1255,오올-사무실(office),50,0,127.2524926,36.48459192
1256,도서출판理憲(이헌)-사무실(office),50,0,127.2422971,36.49655699
1257,많은물소리-사무실(office),50,0,127.2512298,36.48692624
1258,라벤더 필드-사무실(office),50,0,127.2515222,36.47575837
1259,도서출판 정반-사무실(office),50,0,127.2803413,36.54707569
1260,디자인폭스-사무실(office),50,0,127.2559661,36.51288964
1261,DMT미디어-사무실(office),50,0,127.2467778,36.47993497
1262,협동조합청년희망팩토리-사무실(office),50,0,127.297056,36.60080078
1263,모루교육-사무실(office),50,0,127.2924921,36.59331665
1264,스파크스튜디오-사무실(office),50,0,127.210368,36.44238713
1265,도서출판 에이피피-사무실(office),50,0,127.2621649,36.49509738
1266,e북 크리슈나-사무실(office),50,0,127.2885104,36.63542201
1267,과학기술정책연구원-사무실(office),50,0,127.3045433,36.49584229
1268,한국노동연구원-사무실(office),50,0,127.3045433,36.49584229
1269,한국교통연구원-사무실(office),50,0,127.3045433,36.49584229
1270,(주)정인애드-사무실(office),50,0,127.2672132,36.49487081
1271,주)에스엠이앤피-사무실(office),50,0,127.2741188,36.55499403
1272,대외경제정책연구원-사무실(office),50,0,127.3045433,36.49584229
1273,라이프하우스-사무실(office),50,0,127.2614118,36.5163361
1274,화약고-사무실(office),50,0,127.2614118,36.5163361
1275,다온출판사-사무실(office),50,0,127.246408,36.51321913
1276,다원문화사-사무실(office),50,0,127.2158745,36.49115077
1277,한국조세재정연구원-사무실(office),50,0,127.3011377,36.49257073
1278,(주)삼일기획-사무실(office),50,0,127.2638179,36.51864793
1279,(사)자기고용지원연구소 에코디자인-사무실(office),50,0,127.2741188,36.55499403
1280,신화커뮤니케이션-사무실(office),50,0,127.2830622,36.46692576
1281,열림기획(주)-사무실(office),50,0,127.2232188,36.50313796
1282,한라디앤피-사무실(office),50,0,127.2968681,36.60359775
1283,GLC-사무실(office),50,0,127.2649076,36.49562724
1284,(주) 이노브레인-사무실(office),50,0,127.2903385,36.60301728
1285,도서출판 백향목-사무실(office),50,0,127.2607041,36.51311314
1286,향적선방-사무실(office),50,0,127.2962395,36.47755115
1287,(주)와이북스-사무실(office),50,0,127.2878625,36.60160057
1288,해울기획-사무실(office),50,0,127.2457347,36.50635192
1289,지역농업네트워크협동조합-사무실(office),50,0,127.3031828,36.60153996
1290,본디자인-사무실(office),50,0,127.2885207,36.4780831
1291,칸디자인뱅크-사무실(office),50,0,127.3307691,36.55146599
1292,국토연구원-사무실(office),50,0,127.3006235,36.49162257
1293,(주)명품 논술-사무실(office),50,0,127.2498928,36.50314067
1294,하이코두 주식회사-사무실(office),50,0,127.298152,36.60287436
1295,야호세상-사무실(office),50,0,127.252324,36.48359559
1296,한국청소년정책연구원-사무실(office),50,0,127.3045433,36.49584229
1297,아름다운 실마리-사무실(office),50,0,127.2490457,36.47516087
1298,생각열매-사무실(office),50,0,127.2850503,36.593474
1299,주식회사 도서출판 에이에스-사무실(office),50,0,127.258769,36.49108816
1300,DIY media-사무실(office),50,0,127.2003275,36.60153492
1301,주식회사 성원기획-사무실(office),50,0,127.2938701,36.60589696
1302,시타델북스-사무실(office),50,0,127.2310035,36.67767696
1303,도서출판 새내-사무실(office),50,0,127.1844873,36.68196223
1304,뚜벅뚜벅-사무실(office),50,0,127.2421036,36.5104204
1305,주식회사 퍼블릭아이디-사무실(office),50,0,127.2892673,36.47836443
1306,Plotcity(플롯시티)-사무실(office),50,0,127.2387659,36.50867907
1307,(주)계문사 세종지점-사무실(office),50,0,127.2245734,36.50302809
1308,(주) 가현기획-사무실(office),50,0,127.2158276,36.49200948
1309,디자인더하트-사무실(office),50,0,127.2518288,36.51916182
1310,현기획-사무실(office),50,0,127.2826112,36.56213813
1311,건축도시공간연구소-사무실(office),50,0,127.262445,36.50830734
1312,오후의책-사무실(office),50,0,127.2467778,36.47993497
1313,디자인넥서스-사무실(office),50,0,127.2152162,36.4932677
1314,푸른기획-사무실(office),50,0,127.2639257,36.49600412
1315,에이치에스디아이-사무실(office),50,0,127.259698,36.48318687
1316,제로텍-사무실(office),50,0,127.3669392,36.53513674
1317,리빌딩 출판사-사무실(office),50,0,127.2518288,36.51916182
1318,한라기획주식회사-사무실(office),50,0,127.2823693,36.55179382
1319,카멜(Camel)-사무실(office),50,0,127.258769,36.49108816
1320,도서출판 성원인쇄기획-사무실(office),50,0,127.302308,36.59962555
1321,성문기획-사무실(office),50,0,127.2151521,36.50139291
1322,천일사-사무실(office),50,0,127.2982923,36.59891908
1323,"한국장애경제인 세종,충남 인쇄사업단-사무실(office)",50,0,127.2908172,36.57669378
1324,꿈드림 출판사-사무실(office),50,0,127.2593804,36.47878513
1325,어리연-사무실(office),50,0,127.2893791,36.47646497
1326,비비전산세종-사무실(office),50,0,127.2696565,36.42901558
1327,도서출판 이추-사무실(office),50,0,127.2407533,36.50569802
1328,바림 씨엔피-사무실(office),50,0,127.2715519,36.50419419
1329,대승사-사무실(office),50,0,127.2741188,36.55499403
1330,금강D&P-사무실(office),50,0,127.2186548,36.50046817
1331,(사)대한정신장애인가족협회 세종인쇄정보-사무실(office),50,0,127.2820685,36.55210047
1332,디자인시티-사무실(office),50,0,127.2192227,36.69531078
1333,동명기획-사무실(office),50,0,127.2360585,36.51914766
1334,단영 연구소(주)-사무실(office),50,0,127.2496483,36.50452175
1335,주식회사 나모기획 세종지사-사무실(office),50,0,127.2290841,36.48861272
1336,문중기획-사무실(office),50,0,127.2132285,36.50216217
1337,글로벌 침례교 출판사-사무실(office),50,0,127.288242,36.47709033
1338,한국법제연구원-사무실(office),50,0,127.3021109,36.49219781
1339,비스토리-사무실(office),50,0,127.210654,36.49344138
1340,숲속여우비-사무실(office),50,0,127.2496692,36.4878067
1341,(주)시사저널세종취재본부-사무실(office),50,0,127.2639257,36.49600412
1342,디자인시티-사무실(office),50,0,127.2904919,36.47757916
1343,주)글로벌선진교육-사무실(office),50,0,127.2481238,36.50281607
1344,정인출판-사무실(office),50,0,127.2515222,36.47575837
1345,공간 기획-사무실(office),50,0,127.2628709,36.50749194
1346,digging books(디깅북스)-사무실(office),50,0,127.2687842,36.50599456
1347,세종학당-사무실(office),50,0,127.2670876,36.49545315
1348,캔커뮤니케이션-사무실(office),50,0,127.2150735,36.50163276
1349,상상팩토리-사무실(office),50,0,127.2572517,36.48680031
1350,가가린-사무실(office),50,0,127.258769,36.49108816
1351,세종공인중개사학원-사무실(office),50,0,127.2352817,36.51904142
1352,책 사랑-사무실(office),50,0,127.2752082,36.5541895
1353,한국환경정책평가연구원-사무실(office),50,0,127.3045433,36.49584229
1354,명성기획-사무실(office),50,0,127.2029263,36.50522577
1355,한국보건사회연구원-사무실(office),50,0,127.3045433,36.49584229
1356,Mind Brain Education-사무실(office),50,0,127.2559661,36.51288964
1357,(주)다산에듀-사무실(office),50,0,127.2649076,36.49562724
1358,미래기획-사무실(office),50,0,127.2823693,36.55179382
1359,주식회사 초이스디자인-사무실(office),50,0,127.2715519,36.50419419
1360,in Art (인아트)-사무실(office),50,0,127.2414435,36.50154104
1361,소리샘-사무실(office),50,0,127.2359942,36.51944328
1362,세일기획 주식회사-사무실(office),50,0,127.2787108,36.55918687
1363,G-솔로몬-사무실(office),50,0,127.2729345,36.50560765
1364,Shift-사무실(office),50,0,127.2670876,36.49545315
1365,세종인쇄기획(주)-사무실(office),50,0,127.2885207,36.4780831
1366,금강출판사-사무실(office),50,0,127.3122767,36.44379642
1367,이비유커뮤니케이션-사무실(office),50,0,127.2881005,36.61977361
1368,한빛문화사-사무실(office),50,0,127.2232188,36.50313796
1369,(주)세종콘텐츠-사무실(office),50,0,127.3037016,36.60069833
1370,두리-사무실(office),50,0,127.259698,36.48318687
1371,똘레랑스 북스-사무실(office),50,0,127.2509417,36.51190049
1372,나누리기획-사무실(office),50,0,127.2622363,36.50779991
1373,은혜출판사-사무실(office),50,0,127.2384334,36.5704669
1374,시와에세이-사무실(office),50,0,127.2912827,36.60643498
1375,책과 디자인-사무실(office),50,0,127.2621649,36.49509738
1376,LABBITPARK-사무실(office),50,0,127.2962395,36.47755115
1377,이도기획-사무실(office),50,0,127.2457347,36.50635192
1378,부동산 산책-사무실(office),50,0,127.2786189,36.5465466
1379,도서출판 홍해-사무실(office),50,0,127.1999643,36.68648768
1380,기독도서 믿음과이해(FUBOOKS)-사무실(office),50,0,127.2336264,36.63115149
1381,북세종인쇄사-사무실(office),50,0,127.2990314,36.5915924
1382,세종패키지-사무실(office),50,0,127.3333008,36.55850959
1383,탑고을-사무실(office),50,0,127.2860599,36.61534944
1384,천호기획인쇄-사무실(office),50,0,127.2639032,36.56827329
1385,크리아트-사무실(office),50,0,127.2888603,36.60820486
1386,선진기획-사무실(office),50,0,127.3254517,36.55785884
1387,세종시대-사무실(office),50,0,127.2809782,36.46504681
1388,비비종합전산-사무실(office),50,0,127.2699741,36.42918031
1389,(주)휴먼인디자인-사무실(office),50,0,127.2881005,36.61977361
1390,제로넷시스템즈-사무실(office),50,0,127.2881005,36.61977361
1391,"루디아 기획, 인쇄-사무실(office)",50,0,127.3353222,36.4665558
1392,진애드세종-사무실(office),50,0,127.2897534,36.4785762
1393,동광문화사-사무실(office),50,0,127.3266522,36.48116553
1394,해냄기획-사무실(office),50,0,127.2830622,36.46692576
1395,Mathetes-사무실(office),50,0,127.2371901,36.5157578
1396,폰트(Pont)-사무실(office),50,0,127.2639257,36.49600412
1397,쵸이스씨앤피-사무실(office),50,0,127.2715519,36.50419419
1398,(주)모아르-사무실(office),50,0,127.2097438,36.46241109
1399,도서출판 누리마루-사무실(office),50,0,127.2761419,36.55474722
1400,기쁨하우스-사무실(office),50,0,127.2884467,36.60147408
1401,세종인쇄기획사-사무실(office),50,0,127.2997908,36.5968363
1402,(사)성원근로장애인협회 드림사업단-사무실(office),50,0,127.210654,36.49344138
1403,세종아미고-사무실(office),50,0,127.2639257,36.49600412
1404,라이프컨실리언스-사무실(office),50,0,127.2572517,36.48680031
1405,엄지수학-사무실(office),50,0,127.2568631,36.48514275
1406,한국영상대학교출판부-사무실(office),50,0,127.2097438,36.46241109
1407,마하월드-사무실(office),50,0,127.2941813,36.60293108
1408,사단법인 농정연구센터-사무실(office),50,0,127.3031828,36.60153996
1409,성천기획인쇄-사무실(office),50,0,127.3031828,36.60153996
1410,(사)한국협동조합연구소-사무실(office),50,0,127.3031828,36.60153996
1411,프롬에센스-사무실(office),50,0,127.2429503,36.50817453
1412,도서출판 시인광장-사무실(office),50,0,127.263811,36.51278595
1413,돌아온탕자-사무실(office),50,0,127.2407533,36.50569802
1414,예려-사무실(office),50,0,127.2435873,36.49578199
1415,행복을 만드는 사람들-사무실(office),50,0,127.2920137,36.6786347
1416,주식회사씨투씨연구소-사무실(office),50,0,127.2881005,36.61977361
1417,세종아이콘(주)-사무실(office),50,0,127.2881005,36.61977361
1418,알파오피스-사무실(office),50,0,127.2972709,36.60405209
1419,생각의 탄생-사무실(office),50,0,127.2498653,36.51225176
1420,휘파람교육-사무실(office),50,0,127.2941813,36.60293108
1421,도서출판 홈실-사무실(office),50,0,127.2582706,36.64470469
1422,산업연구원-사무실(office),50,0,127.3045433,36.49584229
1423,(주)경성문화사-사무실(office),50,0,127.2625845,36.5069772
1424,썬앤북스-사무실(office),50,0,127.3630032,36.52860519
1425,도서출판 은유-사무실(office),50,0,127.2534729,36.50182933
1426,세종원광고-사무실(office),50,0,127.2810225,36.46378652
1427,한국직업능력개발원-사무실(office),50,0,127.3045433,36.49584229
1428,(주)아르빛-사무실(office),50,0,127.2844683,36.57049003
1429,세종한일인쇄출판-사무실(office),50,0,127.287965,36.47878302
1430,화공나라 출판-사무실(office),50,0,127.2478374,36.50936761
1431,대전가톨릭대학출판사-사무실(office),50,0,127.1970103,36.6545677
1432,삼성기획-사무실(office),50,0,127.2699741,36.42918031
1433,세종애드모아-사무실(office),50,0,127.2221961,36.49212269
1434,꿈연구소-사무실(office),50,0,127.2609191,36.47993156
1435,한밭출판사-사무실(office),50,0,127.297474,36.60355461
1436,(주)휴먼에듀피아-사무실(office),50,0,127.3003333,36.59856423
1437,(주)굿시스템-사무실(office),50,0,127.2939891,36.60520063
1438,나와우리-사무실(office),50,0,127.3003333,36.59856423
1439,도서출판 은진-사무실(office),50,0,127.2941813,36.60293108
1440,대학가출판사-사무실(office),50,0,127.2696657,36.65265672
1441,실수-사무실(office),50,0,127.2907831,36.61452608
1442,엘리펀츠출판사-사무실(office),50,0,127.2601454,36.48257004
1443,새샘출판사-사무실(office),50,0,127.2987969,36.48031512
1444,첫걸음-사무실(office),50,0,127.2529594,36.50481144
1445,그리스도의교회 역사연구소-사무실(office),50,0,127.258769,36.49108816
1446,기억의 나무-사무실(office),50,0,127.3044351,36.48133107
1447,청년광개토-사무실(office),50,0,127.211626,36.50149654
1448,한국재난대응연구소-사무실(office),50,0,127.2626823,36.51782156
1449,도서출판 봄비와씨앗-사무실(office),50,0,127.2496483,36.50452175
1450,삼버들 협동조합-사무실(office),50,0,127.3699545,36.52763222
1451,ARCHIVE SEJONG(아카이브 세종)-사무실(office),50,0,127.1894391,36.60754108
1452,도서출판 수류화개-사무실(office),50,0,127.2568215,36.49211248
1453,(주)두뇌로세계로-사무실(office),50,0,127.4006062,36.53043022
1454,금손출판사-사무실(office),50,0,127.3056151,36.48222651
1455,예닮플러스-사무실(office),50,0,127.2574544,36.4864295
1456,도서출판 마음愛-사무실(office),50,0,127.3009263,36.48518701
1457,이주-사무실(office),50,0,127.2664946,36.51104391
1458,합동인쇄사-사무실(office),50,0,127.2931099,36.59358214
1459,아름디자인-사무실(office),50,0,127.2931099,36.59358214
1460,착한음악연구소(GML)-사무실(office),50,0,127.2462156,36.51540122
1461,주간 영자지 Monday-사무실(office),50,0,127.2687842,36.50599456
1462,주식회사 더성광-사무실(office),50,0,127.2586021,36.51430543
1463,재미씨-사무실(office),50,0,127.2649076,36.49562724
1464,람작-사무실(office),50,0,127.2445724,36.50217538
1465,에스엔피에디팅-사무실(office),50,0,127.3221695,36.47324204
1466,측정보증기술연구소-사무실(office),50,0,127.2593804,36.47878513
1467,뭍-사무실(office),50,0,127.2448033,36.49299528
1468,(주)서린기획-사무실(office),50,0,127.2089822,36.49483138
1469,퍼니플랜(Funnyplan)-사무실(office),50,0,127.2892673,36.47836443
1470,경영기획-사무실(office),50,0,127.2029263,36.50522577
1471,Milton-사무실(office),50,0,127.2448033,36.49299528
1472,청명북스-사무실(office),50,0,127.2607041,36.51311314
1473,1200원의 행복여행-사무실(office),50,0,127.2397981,36.5026188
1474,시나이북스-사무실(office),50,0,127.2448033,36.49299528
1475,HIM-사무실(office),50,0,127.2231738,36.44331064
1476,히스토리-사무실(office),50,0,127.2968575,36.61088601
1477,세종기획-사무실(office),50,0,127.2987969,36.48031512
1478,모두가치-사무실(office),50,0,127.2490457,36.47516087
1479,(주)동명기획-사무실(office),50,0,127.2360585,36.51914766
1480,주현기획-사무실(office),50,0,127.2074194,36.49682134
1481,반연 출판사-사무실(office),50,0,127.2454409,36.50150611
1482,(주)세종경제-사무실(office),50,0,127.287965,36.47878302
1483,(주)토브-사무실(office),50,0,127.1983693,36.51082727
1484,글틈-사무실(office),50,0,127.246408,36.51321913
1485,유토에듀출판-사무실(office),50,0,127.2351698,36.50552676
1486,카리스 아카데미-사무실(office),50,0,127.2454409,36.50150611
1487,당그래-사무실(office),50,0,127.2397981,36.5026188
1488,브이알펄스-사무실(office),50,0,127.2806119,36.4718599
1489,(주)더봄크레이티브-사무실(office),50,0,127.3864728,36.52887876
1490,생각수레-사무실(office),50,0,127.3630032,36.52860519
1491,황금책방-사무실(office),50,0,127.3630032,36.52860519
1492,주식회사 문원씨앤디-사무실(office),50,0,127.2581809,36.49055748
1493,성심기획-사무실(office),50,0,127.2892673,36.47836443
1494,(주)셀프컬쳐리서치-사무실(office),50,0,127.2649076,36.49562724
1495,주식회사 카프-사무실(office),50,0,127.2580293,36.48557135
1496,별빛영화마당 세종관-사무실(office),50,0,127.2716322,36.4733921
1497,(주)버킷스튜디오 메가박스 세종-사무실(office),50,0,127.298152,36.60287436
1498,화력발전소-사무실(office),50,0,127.2097438,36.46241109
1499,한국영상대학교 산학협력단-사무실(office),50,0,127.2097438,36.46241109
1500,(주)신우디앤씨-사무실(office),50,0,127.2624337,36.49560964
1501,주식회사 카프-사무실(office),50,0,127.2580293,36.48557135
1502,감성스토리-사무실(office),50,0,127.2305178,36.51854463
1503,(주)아이투디-사무실(office),50,0,127.288242,36.47709033
1504,주식회사 플라넥스-사무실(office),50,0,127.2576793,36.48607107
1505,사무실(office)-etc,50,0,127.2799035,36.46069267
1506,사무실(office)-etc,50,0,127.2793375,36.46127905
1507,사무실(office)-etc,50,0,127.2777679,36.46192988
1508,사무실(office)-etc,50,0,127.277889,36.46200278
1509,신성미소지움아파트-etc,50,0,127.278102,36.46560673
1510,신성미소지움아파트-etc,50,0,127.2787339,36.46454549
1511,금남두진리버빌아파트-etc,50,0,127.2787224,36.46342925
1512,소나무빌-etc,50,0,127.2844302,36.46710947
1513,금남면게이트볼장-etc,50,0,127.286271,36.46393984
1514,사무실(office)-etc,50,0,127.2823541,36.46564696
1515,사무실(office)-etc,50,0,127.153262,36.69661788
1516,사무실(office)-etc,50,0,127.1500451,36.69409886
1517,사무실(office)-etc,50,0,127.2896952,36.60957708
1518,동양에이케이코리아-etc,50,0,127.3358014,36.53697258
1519,동양에이케이코리아 3공장-etc,50,0,127.3346011,36.53664931
1520,동양에이케이코리아 3공장-etc,50,0,127.3325067,36.53542857
1521,사무실(office)-etc,50,0,127.3330458,36.53414715
1522,사무실(office)-etc,50,0,127.3312282,36.53470464
1523,사무실(office)-etc,50,0,127.3301325,36.53469643
1524,사무실(office)-etc,50,0,127.2910258,36.57562081
1525,사무실(office)-etc,50,0,127.2896962,36.57749226
1526,사무실(office)-etc,50,0,127.2887067,36.57778417
1527,사무실(office)-etc,50,0,127.1743663,36.62494772
1528,사무실(office)-etc,50,0,127.1993021,36.68826055
1529,사무실(office)-etc,50,0,127.2971539,36.59809136
1530,사무실(office)-etc,50,0,127.1884833,36.65076013
1531,사무실(office)-etc,50,0,127.1893083,36.65064862
1532,사무실(office)-etc,50,0,127.1883075,36.65099511
1533,사무실(office)-etc,50,0,127.1887884,36.65050291
1534,사무실(office)-etc,50,0,127.1886008,36.65062681
1535,사무실(office)-etc,50,0,127.1884959,36.65106969
1536,사무실(office)-etc,50,0,127.1895337,36.65088628
1537,사무실(office)-etc,50,0,127.1890992,36.65045965
1538,사무실(office)-etc,50,0,127.345018,36.53970375
1539,사무실(office)-etc,50,0,127.3478756,36.54309069
1540,사무실(office)-etc,50,0,127.169832,36.7257412
1541,사무실(office)-etc,50,0,127.1707124,36.72549504
1542,사무실(office)-etc,50,0,127.1717538,36.72603209
1543,사무실(office)-etc,50,0,127.1761566,36.72734506
1544,사무실(office)-etc,50,0,127.2820334,36.55220482
1545,사무실(office)-etc,50,0,127.3027629,36.59843235
1546,사무실(office)-etc,50,0,127.3003186,36.59978921
1547,사무실(office)-etc,50,0,127.3011252,36.59501225
1548,사무실(office)-etc,50,0,127.2050304,36.67907071
1549,전의시장고객편의시설-etc,50,0,127.2058788,36.67774037
1550,사무실(office)-etc,50,0,127.2998604,36.60214444
1551,사무실(office)-etc,50,0,127.2974234,36.61047529
1552,사무실(office)-etc,50,0,127.2713984,36.66143436
1553,사무실(office)-etc,50,0,127.2729595,36.66250537
1554,사무실(office)-etc,50,0,127.2143785,36.70626712
1555,사무실(office)-etc,50,0,127.1978434,36.58867474
1556,사무실(office)-etc,50,0,127.2943342,36.60013814
1557,사무실(office)-etc,50,0,127.2907491,36.59550698
1558,사무실(office)-etc,50,0,127.2910866,36.59634881
1559,세종고용복지플러스센터-etc,50,0,127.3031828,36.60153995
1560,사무실(office)-etc,50,0,127.2148288,36.69019506
1561,사무실(office)-etc,50,0,127.2151639,36.68994503
1562,사무실(office)-etc,50,0,127.2149397,36.69079317
1563,사무실(office)-etc,50,0,127.2574194,36.44944261
1564,사무실(office)-etc,50,0,127.2527394,36.45737589
1565,사무실(office)-etc,50,0,127.2934983,36.60579241
1566,사무실(office)-etc,50,0,127.2903437,36.60208235
1567,사무실(office)-etc,50,0,127.292028,36.60504248
1568,사무실(office)-etc,50,0,127.2916515,36.60298363
1569,사무실(office)-etc,50,0,127.290537,36.60306345
1570,사무실(office)-etc,50,0,127.2919645,36.6032765
1571,사무실(office)-etc,50,0,127.2603372,36.45217433
1572,사무실(office)-etc,50,0,127.2997278,36.47209781
1573,사무실(office)-etc,50,0,127.2630699,36.55819192
1574,사무실(office)-etc,50,0,127.2634717,36.5583882
1575,사무실(office)-etc,50,0,127.2035066,36.67434369
1576,사무실(office)-etc,50,0,127.2036495,36.67437219
1577,사무실(office)-etc,50,0,127.2051583,36.67271863
1578,사무실(office)-etc,50,0,127.2049591,36.67191185
1579,사무실(office)-etc,50,0,127.205407,36.67168307
1580,사무실(office)-etc,50,0,127.2050757,36.67183784
1581,사무실(office)-etc,50,0,127.2370675,36.58478955
1582,사무실(office)-etc,50,0,127.3220214,36.54642353
1583,사무실(office)-etc,50,0,127.3218303,36.54610807
1584,사무실(office)-etc,50,0,127.3256203,36.55806377
1585,사무실(office)-etc,50,0,127.325921,36.55813081
1586,사무실(office)-etc,50,0,127.212139,36.71147572
1587,사무실(office)-etc,50,0,127.3282078,36.48174639
1588,사무실(office)-etc,50,0,127.2582935,36.64441643
1589,사무실(office)-etc,50,0,127.2645229,36.637168
1590,사무실(office)-etc,50,0,127.2640837,36.63687004
1591,사무실(office)-etc,50,0,127.2758512,36.42677741
1592,사무실(office)-etc,50,0,127.2240461,36.50857302
1593,사무실(office)-etc,50,0,127.2096208,36.43820686
1594,사무실(office)-etc,50,0,127.2500315,36.41048489
1595,사무실(office)-etc,50,0,127.2318279,36.49598726
1596,사무실(office)-etc,50,0,127.2314796,36.49601655
1597,사무실(office)-etc,50,0,127.2310905,36.49607451
1598,사무실(office)-etc,50,0,127.230709,36.49615191
1599,사무실(office)-etc,50,0,127.2107351,36.5011461
1600,사무실(office)-etc,50,0,127.2106786,36.50121515
1601,사무실(office)-etc,50,0,127.2130519,36.50252044
1602,사무실(office)-etc,50,0,127.213381,36.50222596
1603,사무실(office)-etc,50,0,127.215479,36.50414493
1604,사무실(office)-etc,50,0,127.2244269,36.51069771
1605,사무실(office)-etc,50,0,127.2104398,36.4540407
1606,사무실(office)-etc,50,0,127.2328064,36.44690784
1607,사무실(office)-etc,50,0,127.2408576,36.43785613
1608,사무실(office)-etc,50,0,127.2015481,36.49780877
1609,사무실(office)-etc,50,0,127.1916372,36.52078763
1610,사무실(office)-etc,50,0,127.191731,36.51749188
1611,사무실(office)-etc,50,0,127.2077778,36.51845827
1612,사무실(office)-etc,50,0,127.259929,36.41932724
1613,사무실(office)-etc,50,0,127.2214288,36.49955571
1614,사무실(office)-etc,50,0,127.2222284,36.50245154
1615,사무실(office)-etc,50,0,127.2225557,36.50285904
1616,사무실(office)-etc,50,0,127.2226297,36.50244288
1617,사무실(office)-etc,50,0,127.215602,36.49205727
1618,사무실(office)-etc,50,0,127.2156966,36.49201809
1619,사무실(office)-etc,50,0,127.2158275,36.4920095
1620,(주)교동-etc,50,0,127.216534,36.49191007
1621,사무실(office)-etc,50,0,127.2158745,36.49115076
1622,사무실(office)-etc,50,0,127.2151759,36.49152219
1623,사무실(office)-etc,50,0,127.2152864,36.49130694
1624,사무실(office)-etc,50,0,127.2159643,36.49314369
1625,사무실(office)-etc,50,0,127.2274091,36.48840498
1626,사무실(office)-etc,50,0,127.2271532,36.48861953
1627,사무실(office)-etc,50,0,127.2267726,36.48724465
1628,사무실(office)-etc,50,0,127.2318717,36.48114797
1629,사무실(office)-etc,50,0,127.2387485,36.47505527
1630,사무실(office)-etc,50,0,127.249874,36.42353705
1631,사무실(office)-etc,50,0,127.2239713,36.49802995
1632,사무실(office)-etc,50,0,127.230413,36.49177001
1633,사무실(office)-etc,50,0,127.1868735,36.51607981
1634,사무실(office)-etc,50,0,127.2073013,36.49516146
1635,사무실(office)-etc,50,0,127.2059051,36.4956269
1636,사무실(office)-etc,50,0,127.2060002,36.49536064
1637,사무실(office)-etc,50,0,127.2049441,36.43953309
1638,사무실(office)-etc,50,0,127.2359003,36.44789681
1639,사무실(office)-etc,50,0,127.2452281,36.44416558
1640,사무실(office)-etc,50,0,127.2465088,36.44408421
1641,사무실(office)-etc,50,0,127.2442058,36.44906401
1642,사무실(office)-etc,50,0,127.2441455,36.44903364
1643,사무실(office)-etc,50,0,127.2383268,36.44766915
1644,사무실(office)-etc,50,0,127.2229758,36.4992077
1645,사무실(office)-etc,50,0,127.2236111,36.50262686
1646,사무실(office)-etc,50,0,127.2260658,36.50298592
1647,사무실(office)-etc,50,0,127.2224419,36.50308491
1648,사무실(office)-etc,50,0,127.2234961,36.50324483
1649,사무실(office)-etc,50,0,127.22966,36.50510433
1650,사무실(office)-etc,50,0,127.2290539,36.50305154
1651,사무실(office)-etc,50,0,127.2289579,36.50001985
1652,사무실(office)-etc,50,0,127.2293761,36.49967922
1653,사무실(office)-etc,50,0,127.212519,36.49295959
1654,사무실(office)-etc,50,0,127.2121988,36.49308187
1655,사무실(office)-etc,50,0,127.2068631,36.49754607
1656,사무실(office)-etc,50,0,127.2066131,36.49741864
1657,사무실(office)-etc,50,0,127.2067001,36.49718463
1658,사무실(office)-etc,50,0,127.2071547,36.49719189
1659,사무실(office)-etc,50,0,127.2080306,36.49558425
1660,사무실(office)-etc,50,0,127.2106794,36.49468367
1661,사무실(office)-etc,50,0,127.2115154,36.49227246
1662,사무실(office)-etc,50,0,127.2115609,36.49210705
1663,사무실(office)-etc,50,0,127.2114545,36.49218183
1664,사무실(office)-etc,50,0,127.2209327,36.43929552
1665,사무실(office)-etc,50,0,127.2211527,36.43954726
1666,사무실(office)-etc,50,0,127.2256249,36.52352897
1667,대전공원묘원-etc,50,0,127.2241188,36.45691418
1668,사무실(office)-etc,50,0,127.1897902,36.52126863
1669,사무실(office)-etc,50,0,127.1896965,36.52113388
1670,사무실(office)-etc,50,0,127.2766063,36.4180927
1671,사무실(office)-etc,50,0,127.2765893,36.41826613
1672,사무실(office)-etc,50,0,127.2755805,36.41859457
1673,사무실(office)-etc,50,0,127.2758826,36.41866518
1674,사무실(office)-etc,50,0,127.2755209,36.41926216
1675,사무실(office)-etc,50,0,127.2734406,36.42160939
1676,사무실(office)-etc,50,0,127.2718717,36.42690223
1677,사무실(office)-etc,50,0,127.2031306,36.50592698
1678,사무실(office)-etc,50,0,127.202542,36.50529962
1679,사무실(office)-etc,50,0,127.2004357,36.50602393
1680,사무실(office)-etc,50,0,127.2005013,36.50591591
1681,사무실(office)-etc,50,0,127.1988681,36.50851115
1682,사무실(office)-etc,50,0,127.1988545,36.50864587
1683,사무실(office)-etc,50,0,127.198841,36.5087749
1684,사무실(office)-etc,50,0,127.1968302,36.51321319
1685,사무실(office)-etc,50,0,127.2108118,36.49361252
1686,사무실(office)-etc,50,0,127.2106495,36.49333751
1687,사무실(office)-etc,50,0,127.210654,36.49344136
1688,사무실(office)-etc,50,0,127.2107482,36.4933777
1689,사무실(office)-etc,50,0,127.2108747,36.49342836
1690,사무실(office)-etc,50,0,127.2111308,36.49367374
1691,사무실(office)-etc,50,0,127.2114583,36.49383813
1692,사무실(office)-etc,50,0,127.208157,36.491466
1693,사무실(office)-etc,50,0,127.2079522,36.49156153
1694,사무실(office)-etc,50,0,127.1910789,36.49593659
1695,사무실(office)-etc,50,0,127.1877606,36.49403361
1696,사무실(office)-etc,50,0,127.1880932,36.49287993
1697,사무실(office)-etc,50,0,127.2326732,36.45103939
1698,사무실(office)-etc,50,0,127.3642177,36.54687376
1699,사무실(office)-etc,50,0,127.3641347,36.54685154
1700,사무실(office)-etc,50,0,127.3696509,36.51897044
1701,사무실(office)-etc,50,0,127.3694505,36.51898275
1702,사무실(office)-etc,50,0,127.3694588,36.51933709
1703,사무실(office)-etc,50,0,127.3693734,36.5195846
1704,사무실(office)-etc,50,0,127.3694222,36.51950751
1705,사무실(office)-etc,50,0,127.3688802,36.51969853
1706,사무실(office)-etc,50,0,127.3690676,36.51966375
1707,사무실(office)-etc,50,0,127.3689687,36.51966039
1708,사무실(office)-etc,50,0,127.3688977,36.519776
1709,사무실(office)-etc,50,0,127.3690003,36.51974165
1710,사무실(office)-etc,50,0,127.3606594,36.5022286
1711,(주)한국터보기계-etc,50,0,127.3605112,36.50012602
1712,사무실(office)-etc,50,0,127.3596672,36.499504
1713,사무실(office)-etc,50,0,127.3616419,36.50052288
1714,사무실(office)-etc,50,0,127.3605221,36.4993037
1715,사무실(office)-etc,50,0,127.3618018,36.49831212
1716,사무실(office)-etc,50,0,127.3598431,36.49905169
1717,사무실(office)-etc,50,0,127.3595466,36.49924578
1718,사무실(office)-etc,50,0,127.359606,36.49846025
1719,사무실(office)-etc,50,0,127.3626303,36.49988856
1720,사무실(office)-etc,50,0,127.3668976,36.49764917
1721,사무실(office)-etc,50,0,127.3615918,36.5021686
1722,사무실(office)-etc,50,0,127.3642478,36.500078
1723,사무실(office)-etc,50,0,127.3644175,36.49912408
1724,한성리싸이클-etc,50,0,127.3693869,36.5025305
1725,한성리싸이클-etc,50,0,127.3699378,36.50243229
1726,한성리싸이클-etc,50,0,127.3698697,36.50259487
1727,한성리싸이클-etc,50,0,127.369447,36.50271015
1728,한성리싸이클-etc,50,0,127.3694691,36.50260096
1729,한성리싸이클-etc,50,0,127.3692631,36.50277087
1730,한성리싸이클-etc,50,0,127.3691884,36.50260909
1731,사무실(office)-etc,50,0,127.3706055,36.49990059
1732,사무실(office)-etc,50,0,127.3662377,36.50517768
1733,사무실(office)-etc,50,0,127.3665691,36.50465139
1734,사무실(office)-etc,50,0,127.3662772,36.50450875
1735,사무실(office)-etc,50,0,127.3690533,36.50624835
1736,사무실(office)-etc,50,0,127.3692939,36.50630481
1737,사무실(office)-etc,50,0,127.3987678,36.49742595
1738,사무실(office)-etc,50,0,127.3796802,36.51819139
1739,사무실(office)-etc,50,0,127.3798655,36.51763715
1740,사무실(office)-etc,50,0,127.3798066,36.51741403
1741,사무실(office)-etc,50,0,127.3798444,36.51738502
1742,사무실(office)-etc,50,0,127.3909039,36.51287885
1743,사무실(office)-etc,50,0,127.3961916,36.53421567
1744,사무실(office)-etc,50,0,127.3953818,36.53441221
1745,사무실(office)-etc,50,0,127.3644235,36.52896412
1746,사무실(office)-etc,50,0,127.3669409,36.52916474
1747,사무실(office)-etc,50,0,127.3625069,36.53165496
1748,사무실(office)-etc,50,0,127.3678428,36.52860757
1749,사무실(office)-etc,50,0,127.3678869,36.52869509
1750,사무실(office)-etc,50,0,127.367444,36.52945214
1751,사무실(office)-etc,50,0,127.3672402,36.52945651
1752,사무실(office)-etc,50,0,127.3656402,36.53140007
1753,사무실(office)-etc,50,0,127.3574628,36.55695358
1754,사무실(office)-etc,50,0,127.3573914,36.55720182
1755,사무실(office)-etc,50,0,127.3573272,36.55690226
1756,사무실(office)-etc,50,0,127.3570152,36.55723352
1757,사무실(office)-etc,50,0,127.3568312,36.55748289
1758,사무실(office)-etc,50,0,127.3565937,36.55759721
1759,사무실(office)-etc,50,0,127.3558678,36.55934747
1760,사무실(office)-etc,50,0,127.3553729,36.55931282
1761,사무실(office)-etc,50,0,127.3554911,36.55945602
1762,사무실(office)-etc,50,0,127.3604831,36.55006665
1763,사무실(office)-etc,50,0,127.3601498,36.54982055
1764,사무실(office)-etc,50,0,127.3683843,36.52884732
1765,사무실(office)-etc,50,0,127.3684499,36.52887354
1766,사무실(office)-etc,50,0,127.368603,36.52893357
1767,사무실(office)-etc,50,0,127.3684193,36.52898373
1768,사무실(office)-etc,50,0,127.3684791,36.52902282
1769,사무실(office)-etc,50,0,127.3685012,36.52898902
1770,사무실(office)-etc,50,0,127.3685415,36.52903123
1771,사무실(office)-etc,50,0,127.3685945,36.52905167
1772,사무실(office)-etc,50,0,127.368651,36.52907387
1773,사무실(office)-etc,50,0,127.3683654,36.52904984
1774,사무실(office)-etc,50,0,127.3683371,36.52917811
1775,사무실(office)-etc,50,0,127.368448,36.52908454
1776,사무실(office)-etc,50,0,127.3683982,36.52919033
1777,사무실(office)-etc,50,0,127.3685175,36.52911044
1778,사무실(office)-etc,50,0,127.3684771,36.52920874
1779,사무실(office)-etc,50,0,127.368588,36.5291333
1780,사무실(office)-etc,50,0,127.3685374,36.52922156
1781,사무실(office)-etc,50,0,127.3686133,36.52923735
1782,사무실(office)-etc,50,0,127.3661737,36.53489124
1783,사무실(office)-etc,50,0,127.3682412,36.52798381
1784,사무실(office)-etc,50,0,127.3700758,36.52827922
1785,사무실(office)-etc,50,0,127.3706874,36.52822836
1786,사무실(office)-etc,50,0,127.370607,36.52834829
1787,사무실(office)-etc,50,0,127.3706466,36.52841825
1788,사무실(office)-etc,50,0,127.3706176,36.52852864
1789,세종디엔씨빌딩-etc,50,0,127.2358906,36.50066008
1790,사무실(office)-etc,50,0,127.2107303,36.51469358
1791,사무실(office)-etc,50,0,127.2122297,36.51479774
1792,사무실(office)-etc,50,0,127.206837,36.60237135
1793,사무실(office)-etc,50,0,127.2074441,36.60201177
1794,축산물품질평가원-etc,50,0,127.2427789,36.51360353
1795,사무실(office)-etc,50,0,127.2180069,36.43972856
1796,사무실(office)-etc,50,0,127.2180766,36.43995636
1797,사무실(office)-etc,50,0,127.2393133,36.47987186
1798,사무실(office)-etc,50,0,127.3644135,36.51992953
1799,사무실(office)-etc,50,0,127.2234904,36.51947406
1800,사무실(office)-etc,50,0,127.1463959,36.70646642
1801,사무실(office)-etc,50,0,127.2377523,36.49381712
1802,사무실(office)-etc,50,0,127.237411,36.49351019
1803,사무실(office)-etc,50,0,127.2372734,36.49262855
1804,사무실(office)-etc,50,0,127.2377075,36.49231095
1805,사무실(office)-etc,50,0,127.2351178,36.49262688
1806,사무실(office)-etc,50,0,127.2348144,36.49222292
1807,사무실(office)-etc,50,0,127.2351214,36.49321166
1808,사무실(office)-etc,50,0,127.2356178,36.49385259
1809,사무실(office)-etc,50,0,127.3126085,36.52009189
1810,사무실(office)-etc,50,0,127.2743544,36.5225346
1811,사무실(office)-etc,50,0,127.1773895,36.68320114
1812,사무실(office)-etc,50,0,127.2820685,36.55210051
1813,사무실(office)-etc,50,0,127.273596,36.44599214
1814,사무실(office)-etc,50,0,127.3017687,36.60221868
1815,세종시 푸르지오시티-etc,50,0,127.2639257,36.49600411
1816,사무실(office)-etc,50,0,127.2478722,36.54908802
1817,국립중앙수목원 조성사업 현장-etc,50,0,127.2912252,36.49658075
1818,국립중앙수목원 조성사업 현장-etc,50,0,127.2922138,36.49627797
1819,사무실(office)-etc,50,0,127.2827816,36.54242303
1820,사무실(office)-etc,50,0,127.2160678,36.53343492
1821,사무실(office)-etc,50,0,127.2892246,36.54837281
1822,사무실(office)-etc,50,0,127.3129244,36.52034288
1823,사무실(office)-etc,50,0,127.2750131,36.52232274
1824,리베라아이누리-etc,50,0,127.2587798,36.48452045
1825,사무실(office)-etc,50,0,127.3533767,36.53434367
1826,사무실(office)-etc,50,0,127.2898158,36.44459043
1827,한스웰시티-etc,50,0,127.2580293,36.48557132
1828,사무실(office)-etc,50,0,127.1744615,36.64011135
1829,사무실(office)-etc,50,0,127.2912827,36.60643499
1830,사무실(office)-etc,50,0,127.169894,36.63824135
1831,사무실(office)-etc,50,0,127.2422399,36.55018415
1832,사무실(office)-etc,50,0,127.2756827,36.5500591
1833,사무실(office)-etc,50,0,127.2754779,36.54989947
1834,사무실(office)-etc,50,0,127.2737673,36.54088771
1835,사무실(office)-etc,50,0,127.278577,36.545264
1836,사무실(office)-etc,50,0,127.2785353,36.5463622
1837,사무실(office)-etc,50,0,127.2791624,36.54682581
1838,사무실(office)-etc,50,0,127.2791726,36.54694261
1839,사무실(office)-etc,50,0,127.2786246,36.54730776
1840,사무실(office)-etc,50,0,127.2628266,36.54512059
1841,사무실(office)-etc,50,0,127.2343982,36.54108107
1842,사무실(office)-etc,50,0,127.2307433,36.54165066
1843,사무실(office)-etc,50,0,127.2734745,36.5397316
1844,사무실(office)-etc,50,0,127.2735544,36.53987667
1845,사무실(office)-etc,50,0,127.2740548,36.52220518
1846,사무실(office)-etc,50,0,127.3139177,36.52039931
1847,사무실(office)-etc,50,0,127.2591852,36.54770102
1848,세종시주민생계조합-etc,50,0,127.2592808,36.54809009
1849,사무실(office)-etc,50,0,127.2768617,36.54424611
1850,사무실(office)-etc,50,0,127.2743385,36.52212884
1851,사무실(office)-etc,50,0,127.31379,36.52034456
1852,사무실(office)-etc,50,0,127.233121,36.53804311
1853,사무실(office)-etc,50,0,127.3143424,36.52029606
1854,사무실(office)-etc,50,0,127.2822368,36.5519183
1855,국립중앙수목원 조성사업 현장-etc,50,0,127.292041,36.49556803
1856,사무실(office)-etc,50,0,127.2918453,36.54581832
1857,서세종IC-etc,50,0,127.1906121,36.49291771
1858,남세종TG-etc,50,0,127.2955984,36.42288501
1859,세종의아침-etc,50,0,127.2613631,36.48238204
1860,르네상스-etc,50,0,127.2591144,36.48561855
1861,사무실(office)-etc,50,0,127.2819625,36.46869523
1862,KT&G세종타워A-etc,50,0,127.2588509,36.50113215
1863,공동구 관리사무소-etc,50,0,127.3084594,36.53663798
1864,사무실(office)-etc,50,0,127.3199867,36.53314974
1865,사무실(office)-etc,50,0,127.3200484,36.53343851
1866,사무실(office)-etc,50,0,127.3204661,36.53347681
1867,사무실(office)-etc,50,0,127.2820285,36.46835444
1868,사무실(office)-etc,50,0,127.2818962,36.46832867
1869,사무실(office)-etc,50,0,127.2820888,36.46871278
1870,사무실(office)-etc,50,0,127.2825603,36.46869089
1871,사무실(office)-etc,50,0,127.3122729,36.47996535
1872,사무실(office)-etc,50,0,127.3166856,36.47872685
1873,사무실(office)-etc,50,0,127.3288908,36.48020486
1874,사무실(office)-etc,50,0,127.3314627,36.48068876
1875,사무실(office)-etc,50,0,127.3316645,36.48065831
1876,사무실(office)-etc,50,0,127.3331712,36.48078458
1877,사무실(office)-etc,50,0,127.3453908,36.47827736
1878,사무실(office)-etc,50,0,127.284786,36.42132464
1879,사무실(office)-etc,50,0,127.2845,36.42219186
1880,사무실(office)-etc,50,0,127.2746452,36.42876032
1881,사무실(office)-etc,50,0,127.2741656,36.42925376
1882,사무실(office)-etc,50,0,127.2746219,36.43185051
1883,사무실(office)-etc,50,0,127.2783568,36.43048308
1884,사무실(office)-etc,50,0,127.279221,36.4313833
1885,사무실(office)-etc,50,0,127.2797358,36.43071374
1886,(유)삼우엔테크-etc,50,0,127.2823673,36.4340473
1887,사무실(office)-etc,50,0,127.2826653,36.43796076
1888,사무실(office)-etc,50,0,127.2867205,36.43913658
1889,사무실(office)-etc,50,0,127.2867065,36.4395351
1890,사무실(office)-etc,50,0,127.2879091,36.44008842
1891,사무실(office)-etc,50,0,127.2821568,36.65778656
1892,사무실(office)-etc,50,0,127.2822013,36.65774581
1893,사무실(office)-etc,50,0,127.2821565,36.65787676
1894,사무실(office)-etc,50,0,127.2826043,36.65806437
1895,사무실(office)-etc,50,0,127.3007014,36.50395175
1896,사무실(office)-etc,50,0,127.3584878,36.54114562
1897,사무실(office)-etc,50,0,127.3572756,36.54152966
1898,사무실(office)-etc,50,0,127.3510801,36.54237185
1899,사무실(office)-etc,50,0,127.388109,36.52885481
1900,사무실(office)-etc,50,0,127.3882168,36.5295879
1901,테크네트-etc,50,0,127.3884503,36.53010579
1902,사무실(office)-etc,50,0,127.3892862,36.52963907
1903,사무실(office)-etc,50,0,127.2844547,36.44000819
1904,사무실(office)-etc,50,0,127.2849994,36.45136219
1905,사무실(office)-etc,50,0,127.2761046,36.5495698
1906,사무실(office)-etc,50,0,127.276941,36.55068096
1907,사무실(office)-etc,50,0,127.276862,36.55061
1908,사무실(office)-etc,50,0,127.2775398,36.55111778
1909,사무실(office)-etc,50,0,127.2824132,36.55501524
1910,사무실(office)-etc,50,0,127.2790569,36.55634809
1911,사무실(office)-etc,50,0,127.2836691,36.56121527
1912,사무실(office)-etc,50,0,127.290257,36.5730073
1913,사무실(office)-etc,50,0,127.2914185,36.57583884
1914,사무실(office)-etc,50,0,127.2924002,36.57675992
1915,사무실(office)-etc,50,0,127.2919511,36.57713378
1916,사무실(office)-etc,50,0,127.2927726,36.57790538
1917,사무실(office)-etc,50,0,127.2915985,36.57830255
1918,사무실(office)-etc,50,0,127.2931156,36.57933393
1919,사무실(office)-etc,50,0,127.2923185,36.57958053
1920,사무실(office)-etc,50,0,127.2921426,36.57985116
1921,사무실(office)-etc,50,0,127.2926118,36.58027116
1922,사무실(office)-etc,50,0,127.2921118,36.59105951
1923,사무실(office)-etc,50,0,127.2912901,36.59548671
1924,사무실(office)-etc,50,0,127.2901431,36.5991194
1925,사무실(office)-etc,50,0,127.2903772,36.60129189
1926,세종방송-etc,50,0,127.2895949,36.60613794
1927,사무실(office)-etc,50,0,127.2931696,36.60962526
1928,사무실(office)-etc,50,0,127.2884293,36.62824883
1929,사무실(office)-etc,50,0,127.2936377,36.610476
1930,사무실(office)-etc,50,0,127.2901586,36.62664369
1931,사무실(office)-etc,50,0,127.2899082,36.62780007
1932,사무실(office)-etc,50,0,127.2669939,36.6507731
1933,사무실(office)-etc,50,0,127.2186121,36.67445227
1934,사무실(office)-etc,50,0,127.2179218,36.67432989
1935,사무실(office)-etc,50,0,127.2187495,36.67425355
1936,사무실(office)-etc,50,0,127.2187752,36.67388334
1937,사무실(office)-etc,50,0,127.218426,36.67430468
1938,사무실(office)-etc,50,0,127.164441,36.72849776
1939,사무실(office)-etc,50,0,127.2176017,36.67425332
1940,사무실(office)-etc,50,0,127.2188227,36.67408204
1941,사무실(office)-etc,50,0,127.1937819,36.67736846
1942,생명수교회-etc,50,0,127.1929515,36.67745746
1943,사무실(office)-etc,50,0,127.1539841,36.69533301
1944,사무실(office)-etc,50,0,127.1511185,36.70514778
1945,사무실(office)-etc,50,0,127.163893,36.72700974
1946,사무실(office)-etc,50,0,127.163344,36.72801691
1947,사무실(office)-etc,50,0,127.2743441,36.64729761
1948,사무실(office)-etc,50,0,127.2675123,36.65302893
1949,사무실(office)-etc,50,0,127.2673242,36.65313205
1950,사무실(office)-etc,50,0,127.2662689,36.65353282
1951,사무실(office)-etc,50,0,127.2635545,36.65580094
1952,사무실(office)-etc,50,0,127.2503809,36.66592532
1953,사무실(office)-etc,50,0,127.2501462,36.66592467
1954,사무실(office)-etc,50,0,127.2499217,36.66592447
1955,사무실(office)-etc,50,0,127.2472789,36.66591526
1956,사무실(office)-etc,50,0,127.2385844,36.66556679
1957,사무실(office)-etc,50,0,127.2182439,36.67084085
1958,사무실(office)-etc,50,0,127.2186383,36.67015754
1959,사무실(office)-etc,50,0,127.2079647,36.67908567
1960,사무실(office)-etc,50,0,127.2077226,36.67973385
1961,사무실(office)-etc,50,0,127.207656,36.67961581
1962,사무실(office)-etc,50,0,127.2073797,36.6796932
1963,사무실(office)-etc,50,0,127.2016511,36.67956563
1964,사무실(office)-etc,50,0,127.2018272,36.6797496
1965,사무실(office)-etc,50,0,127.2001276,36.67988634
1966,민석그린아파트-etc,50,0,127.1838299,36.68203727
1967,사무실(office)-etc,50,0,127.1815163,36.68240964
1968,세종에머슨CC-etc,50,0,127.1713165,36.68610114
1969,사무실(office)-etc,50,0,127.1708681,36.68625707
1970,사무실(office)-etc,50,0,127.162082,36.68868183
1971,은하수공원-etc,50,0,127.2456992,36.53453936
1972,세종 SK가스 충전소-etc,50,0,127.2475778,36.5296773
1973,사무실(office)-etc,50,0,127.3239263,36.58036133
1974,사무실(office)-etc,50,0,127.3243785,36.58031456
1975,사무실(office)-etc,50,0,127.2153105,36.59495304
1976,사무실(office)-etc,50,0,127.212012,36.59464856
1977,사무실(office)-etc,50,0,127.2154922,36.59496991
1978,조치원노인전문병원-etc,50,0,127.237533,36.61328332
1979,사무실(office)-etc,50,0,127.2621251,36.59948082
1980,사무실(office)-etc,50,0,127.2600566,36.6006175
1981,사무실(office)-etc,50,0,127.1675121,36.60283119
1982,한국환경공단-etc,50,0,127.1824036,36.52391599
1983,한국환경공단-etc,50,0,127.1819198,36.52425743
1984,한국환경공단-etc,50,0,127.182022,36.52365122
1985,한국환경공단-etc,50,0,127.1817881,36.52419973
1986,한국환경공단-etc,50,0,127.1823472,36.52379231
1987,사무실(office)-etc,50,0,127.183768,36.52701026
1988,사무실(office)-etc,50,0,127.1880848,36.53137128
1989,사무실(office)-etc,50,0,127.1894438,36.53159259
1990,사무실(office)-etc,50,0,127.1830878,36.64862561
1991,사무실(office)-etc,50,0,127.1835189,36.65295792
1992,사무실(office)-etc,50,0,127.19168,36.53661676
1993,사무실(office)-etc,50,0,127.1864004,36.65450911
1994,농협하나로마트-etc,50,0,127.1899129,36.53871699
1995,농협하나로마트-etc,50,0,127.1901091,36.53890665
1996,사무실(office)-etc,50,0,127.1895165,36.54083781
1997,사무실(office)-etc,50,0,127.2018996,36.68556149
1998,사무실(office)-etc,50,0,127.1959051,36.67173878
1999,사무실(office)-etc,50,0,127.203957,36.68620385
2000,사무실(office)-etc,50,0,127.2036089,36.68340015
2001,사무실(office)-etc,50,0,127.2042107,36.68647639
